,stop_id,stop_code,stop_name,stop_lat,stop_lon,stop_url,is_freq
0,10001,10001,Southbound Osborne at Mulvey,49.87126079164335,-97.1395184825284,https://winnipegtransit.com/stops/10001,True
1,10002,10002,Southbound Osborne at Glasgow,49.86881850124874,-97.13755263735648,https://winnipegtransit.com/stops/10002,True
2,10003,10003,Southbound Osborne at Brandon,49.86787982449569,-97.13679549876352,https://winnipegtransit.com/stops/10003,True
3,10005,10005,Southbound Osborne at Morley,49.865163994792965,-97.1346038905436,https://winnipegtransit.com/stops/10005,True
4,10006,10006,Southbound Osborne at Maplewood,49.86325019276681,-97.13306344112284,https://winnipegtransit.com/stops/10006,True
5,10007,10007,Southbound Osborne at Ashland,49.86106287002816,-97.13129711504052,https://winnipegtransit.com/stops/10007,False
6,10008,10008,Southbound Osborne at Jubilee,49.859814917782366,-97.13032952377256,https://winnipegtransit.com/stops/10008,True
7,10009,10009,Southbound Osborne at Montague,49.857798129847104,-97.12854293933007,https://winnipegtransit.com/stops/10009,False
8,10010,10010,Northbound Eccles at Clare,49.863344479060856,-97.1177808338334,https://winnipegtransit.com/stops/10010,False
9,10013,10013,Southbound Eccles at Ashland,49.86476677227488,-97.1195067610404,https://winnipegtransit.com/stops/10013,False
10,10014,10014,Northbound Eccles at Ashland,49.86512883405248,-97.1196457748323,https://winnipegtransit.com/stops/10014,False
11,10017,10017,Northbound Eccles at Oakwood,49.866541392065265,-97.12077379976031,https://winnipegtransit.com/stops/10017,False
12,10018,10018,Southbound Eccles at Oakwood,49.86665332932752,-97.12101994777562,https://winnipegtransit.com/stops/10018,False
13,10021,10021,Northbound Eccles at Bartlet,49.86819059799425,-97.12207362695938,https://winnipegtransit.com/stops/10021,False
14,10022,10022,Southbound Eccles at Bartlet,49.86828545625278,-97.12237611534658,https://winnipegtransit.com/stops/10022,False
15,10025,10025,Westbound Morley at Mabel,49.86838896714752,-97.1248771124813,https://winnipegtransit.com/stops/10025,False
16,10026,10026,Eastbound Morley at Mabel,49.86816806156839,-97.12512225063858,https://winnipegtransit.com/stops/10026,False
17,10029,10029,Westbound Morley at Casey,49.8668532204428,-97.12947329217964,https://winnipegtransit.com/stops/10029,False
18,10030,10030,Eastbound Morley at Casey,49.86676961806647,-97.12930952663837,https://winnipegtransit.com/stops/10030,False
19,10035,10035,Westbound Morley at Nassau,49.864056527892096,-97.13788885364536,https://winnipegtransit.com/stops/10035,False
20,10036,10036,Eastbound Morley at Nassau,49.86376658562313,-97.13831746375344,https://winnipegtransit.com/stops/10036,False
21,10037,10037,Westbound Morley at Daly,49.86308699048547,-97.1408065758905,https://winnipegtransit.com/stops/10037,False
22,10039,10039,Southbound Daly at Kylemore,49.86137098968443,-97.13981493409268,https://winnipegtransit.com/stops/10039,False
23,10040,10040,Northbound Daly at Kylemore,49.86110425861084,-97.13944948419524,https://winnipegtransit.com/stops/10040,False
24,10041,10041,Eastbound Rathgar at Daly,49.859879047722984,-97.13877300818372,https://winnipegtransit.com/stops/10041,False
25,10042,10042,Southbound Daly at Beresford,49.8593934337199,-97.13822119004028,https://winnipegtransit.com/stops/10042,False
26,10043,10043,Westbound Beresford at Cockburn,49.857908237494435,-97.1420767146433,https://winnipegtransit.com/stops/10043,False
27,10057,10057,Northbound Osborne at Wavell,49.85808421877715,-97.128434489488,https://winnipegtransit.com/stops/10057,False
28,10058,10058,Northbound Osborne at Jubilee,49.860128650723894,-97.13026175549768,https://winnipegtransit.com/stops/10058,True
29,10059,10059,Northbound Osborne at Baltimore,49.86177820225123,-97.13158955493624,https://winnipegtransit.com/stops/10059,False
30,10060,10060,Northbound Osborne at Maplewood,49.86331874363638,-97.13285206958416,https://winnipegtransit.com/stops/10060,True
31,10061,10061,Northbound Osborne at Morley,49.86508647491589,-97.13425898259815,https://winnipegtransit.com/stops/10061,True
32,10063,10063,Northbound Osborne at Brandon,49.868185019459986,-97.1367559215614,https://winnipegtransit.com/stops/10063,True
33,10064,10064,Northbound Osborne at Glasgow,49.86910549368015,-97.13749984727306,https://winnipegtransit.com/stops/10064,True
34,10065,10065,Northbound Osborne at Mulvey,49.87193947531293,-97.13977075612964,https://winnipegtransit.com/stops/10065,True
35,10066,10066,Northbound Osborne at Osborne Junction,49.875128246779894,-97.14229276290868,https://winnipegtransit.com/stops/10066,True
36,10067,10067,Southbound Osborne at Osborne Junction,49.87466012253285,-97.14226897185502,https://winnipegtransit.com/stops/10067,True
37,10068,10068,Southbound Pembina at Osborne Junction,49.87456972006579,-97.142801343363,https://winnipegtransit.com/stops/10068,True
38,10070,10070,Southbound Pembina at Warsaw,49.8718722879166,-97.14399040241452,https://winnipegtransit.com/stops/10070,True
39,10071,10071,Northbound Pembina at Nassau,49.87101605281816,-97.1438840520329,https://winnipegtransit.com/stops/10071,True
40,10072,10072,Southbound Pembina at Fleet,49.869597348869625,-97.14516313949728,https://winnipegtransit.com/stops/10072,True
41,10073,10073,Northbound Pembina at Daly,49.868433835110814,-97.14552779552844,https://winnipegtransit.com/stops/10073,True
42,10075,10075,Southbound Pembina at Scotland,49.8657527058665,-97.14717514414842,https://winnipegtransit.com/stops/10075,True
43,10076,10076,Northbound Pembina at Scotland,49.8659332479856,-97.14665334451614,https://winnipegtransit.com/stops/10076,True
44,10077,10077,Northbound Pembina at Grant,49.8643694281962,-97.14729764710935,https://winnipegtransit.com/stops/10077,True
45,10078,10078,Southbound Pembina at Grant,49.8642333855791,-97.1477898943185,https://winnipegtransit.com/stops/10078,True
46,10081,10081,Southbound Pembina at Ebby,49.86088533775143,-97.14992162993975,https://winnipegtransit.com/stops/10081,True
47,10082,10082,Northbound Pembina at Jackson,49.85965643356954,-97.1501355412721,https://winnipegtransit.com/stops/10082,True
48,10085,10085,Northbound Pembina at Stafford,49.85652863546824,-97.15198023704131,https://winnipegtransit.com/stops/10085,True
49,10086,10086,Southbound Pembina at Stafford,49.85689310303675,-97.15227242676562,https://winnipegtransit.com/stops/10086,True
50,10087,10087,Northbound Stafford at Stafford Loop,49.8573982958364,-97.15236446419968,https://winnipegtransit.com/stops/10087,False
51,10089,10089,Northbound Stafford at Ebby,49.85930729462343,-97.15418395854036,https://winnipegtransit.com/stops/10089,False
52,10090,10090,Southbound Stafford at Ebby,49.85936655401476,-97.15451563846484,https://winnipegtransit.com/stops/10090,False
53,10094,10094,Southbound Stafford at Grant,49.86224648824648,-97.15686883921958,https://winnipegtransit.com/stops/10094,False
54,10097,10097,Northbound Stafford at Fleet,49.86508510920402,-97.15888990766324,https://winnipegtransit.com/stops/10097,False
55,10098,10098,Southbound Stafford at Fleet,49.865217157104595,-97.15927452879126,https://winnipegtransit.com/stops/10098,False
56,10099,10099,Northbound Stafford at Warsaw,49.8664788751777,-97.15999195447144,https://winnipegtransit.com/stops/10099,False
57,10100,10100,Southbound Stafford at Warsaw,49.86650149684253,-97.16028333374211,https://winnipegtransit.com/stops/10100,False
58,10101,10101,Northbound Stafford at Corydon,49.86798183214363,-97.16117341609116,https://winnipegtransit.com/stops/10101,False
59,10102,10102,Southbound Stafford at Corydon,49.86817768362978,-97.16161131012193,https://winnipegtransit.com/stops/10102,False
60,10108,10108,Northbound Stafford at Kingsway,49.873368409988906,-97.1656174721763,https://winnipegtransit.com/stops/10108,False
61,10109,10109,Southbound Stafford at Kingsway,49.87344605767615,-97.16597640125816,https://winnipegtransit.com/stops/10109,False
62,10114,10114,Eastbound Academy at Wellington Crescent,49.87692410978963,-97.16294944695169,https://winnipegtransit.com/stops/10114,False
63,10115,10115,Westbound Academy at Wellington Crescent,49.877233288611016,-97.16316042060242,https://winnipegtransit.com/stops/10115,False
64,10117,10117,Eastbound Grosvenor at Arbuthnot,49.87253678672985,-97.15686680669614,https://winnipegtransit.com/stops/10117,False
65,10118,10118,Eastbound Grosvenor at Lilac,49.871833949164035,-97.1590508032336,https://winnipegtransit.com/stops/10118,False
66,10119,10119,Westbound Grosvenor at Ruskin,49.87181427959084,-97.15951083411672,https://winnipegtransit.com/stops/10119,False
67,10125,10125,Westbound Corydon at Harrow,49.86747977080107,-97.16354435612362,https://winnipegtransit.com/stops/10125,False
68,10126,10126,Eastbound Corydon at Stafford,49.867951838669114,-97.1615503020115,https://winnipegtransit.com/stops/10126,False
69,10127,10127,Westbound Corydon at Stafford,49.86823530895113,-97.16127512305748,https://winnipegtransit.com/stops/10127,False
70,10130,10130,Eastbound Corydon at Lilac,49.86937732255068,-97.15729325371504,https://winnipegtransit.com/stops/10130,False
71,10131,10131,Westbound Portage at Dominion,49.8843339971199,-97.17819036952868,https://winnipegtransit.com/stops/10131,True
72,10140,10140,Westbound Corydon at Lilac,49.869643245963175,-97.15704654337084,https://winnipegtransit.com/stops/10140,False
73,10141,10141,Eastbound Corydon at Arbuthnot,49.870115421381186,-97.15506624798056,https://winnipegtransit.com/stops/10141,False
74,10142,10142,Westbound Corydon at Arbuthnot,49.870158029691645,-97.15548214020866,https://winnipegtransit.com/stops/10142,False
75,10143,10143,Eastbound Corydon at Cockburn,49.87078511098805,-97.1530644615138,https://winnipegtransit.com/stops/10143,False
76,10144,10144,Westbound Corydon at Cockburn,49.870913628082725,-97.15322656787896,https://winnipegtransit.com/stops/10144,False
77,10145,10145,Eastbound Corydon at Hugo,49.87154876201081,-97.15075284343358,https://winnipegtransit.com/stops/10145,False
78,10146,10146,Westbound Corydon at Hugo,49.87158306287575,-97.1512108143922,https://winnipegtransit.com/stops/10146,False
79,10147,10147,Eastbound Corydon at Daly,49.87225299871164,-97.1486661087291,https://winnipegtransit.com/stops/10147,False
80,10148,10148,Westbound Corydon at Daly,49.87246741296988,-97.14857440221664,https://winnipegtransit.com/stops/10148,False
81,10149,10149,Westbound Corydon at Nassau,49.87324850568172,-97.14623412710976,https://winnipegtransit.com/stops/10149,False
82,10150,10150,Eastbound Corydon at Nassau,49.87343766115527,-97.14512735006932,https://winnipegtransit.com/stops/10150,False
83,10153,10153,Southbound Donald at Stradbrook,49.87979056149556,-97.13799350301632,https://winnipegtransit.com/stops/10153,True
84,10157,10157,Eastbound Mayfair at Queen Elizabeth,49.88451542040469,-97.13312021242491,https://winnipegtransit.com/stops/10157,True
85,10158,10158,Northbound Queen Elizabeth at Mayfair,49.88515638791982,-97.13214881973482,https://winnipegtransit.com/stops/10158,True
86,10159,10159,Southbound Queen Elizabeth at Stradbrook,49.88390505936916,-97.13208574909751,https://winnipegtransit.com/stops/10159,True
87,10161,10161,Westbound Stradbrook at Harkness,49.88178236777364,-97.13432536599645,https://winnipegtransit.com/stops/10161,False
88,10166,10166,Southbound Donald at River,49.88194807260272,-97.1373536715925,https://winnipegtransit.com/stops/10166,True
89,10169,10169,Westbound River at Bryce,49.88055539277718,-97.1424881452546,https://winnipegtransit.com/stops/10169,False
90,10170,10170,Westbound River at Osborne,49.879430849269994,-97.14584423371304,https://winnipegtransit.com/stops/10170,False
91,10171,10171,Northbound Osborne at River,49.87946828908375,-97.14649703403526,https://winnipegtransit.com/stops/10171,True
92,10172,10172,Southbound Osborne at River,49.87917208027641,-97.14653621683205,https://winnipegtransit.com/stops/10172,True
93,10173,10173,Westbound River at Norquay,49.87846922155663,-97.14870674903784,https://winnipegtransit.com/stops/10173,False
94,10176,10176,Westbound Wellington at Stradbrook,49.87608260866625,-97.1507745104009,https://winnipegtransit.com/stops/10176,False
95,10178,10178,Westbound Wellington at Hugo,49.87292107703529,-97.15276028727055,https://winnipegtransit.com/stops/10178,False
96,10179,10179,Westbound Wellington at Dorchester,49.87261617524145,-97.1556390090964,https://winnipegtransit.com/stops/10179,False
97,10181,10181,Eastbound Wellington at Hugo,49.87309809067663,-97.15201587669505,https://winnipegtransit.com/stops/10181,False
98,10184,10184,Eastbound Stradbrook at Nassau,49.876449335119055,-97.14839426866251,https://winnipegtransit.com/stops/10184,False
99,10185,10185,Southbound Osborne at Wardlaw,49.876983910800725,-97.14414239237144,https://winnipegtransit.com/stops/10185,True
100,10186,10186,Northbound Osborne at Stradbrook,49.87766570664935,-97.1445895101974,https://winnipegtransit.com/stops/10186,True
101,10187,10187,Eastbound Stradbrook at Osborne,49.87802988453734,-97.14374038200764,https://winnipegtransit.com/stops/10187,False
102,10188,10188,Eastbound Stradbrook at Scott,49.87908558040799,-97.14058186417778,https://winnipegtransit.com/stops/10188,False
103,10194,10194,Southbound Maryland at Westminster,49.88199448761594,-97.16107260049073,https://winnipegtransit.com/stops/10194,False
104,10195,10195,Southbound Maryland at Alloway,49.8835663402238,-97.1609293459362,https://winnipegtransit.com/stops/10195,False
105,10196,10196,Southbound Maryland at Broadway,49.88534583685297,-97.16083387489547,https://winnipegtransit.com/stops/10196,False
106,10197,10197,Southbound Maryland at Portage South,49.88730424022192,-97.16067590613268,https://winnipegtransit.com/stops/10197,True
107,10198,10198,Eastbound Broadway at Maryland,49.885720671208055,-97.1600817803912,https://winnipegtransit.com/stops/10198,False
108,10199,10199,Westbound Broadway at Sherbrook,49.88581887004547,-97.15833783477328,https://winnipegtransit.com/stops/10199,False
109,10201,10201,Northbound Sherbrook at Broadway South,49.88522918233358,-97.15915380410776,https://winnipegtransit.com/stops/10201,False
110,10202,10202,Northbound Sherbrook at Sara,49.88405221099567,-97.15924033938371,https://winnipegtransit.com/stops/10202,False
111,10205,10205,Northbound Sherbrook at Westminster,49.88210257745705,-97.15938409791627,https://winnipegtransit.com/stops/10205,False
112,10206,10206,Northbound Sherbrook at Misericordia Health Ctr,49.87995495083067,-97.15952145163256,https://winnipegtransit.com/stops/10206,False
113,10207,10207,Eastbound Broadway at Young,49.88556214264012,-97.15577210502128,https://winnipegtransit.com/stops/10207,False
114,10208,10208,Westbound Broadway at Young,49.88570787131376,-97.15532105770572,https://winnipegtransit.com/stops/10208,False
115,10211,10211,Eastbound Broadway at Balmoral,49.88545396320676,-97.152936222242,https://winnipegtransit.com/stops/10211,False
116,10214,10214,Westbound Broadway at Balmoral,49.885610890696434,-97.1526239561492,https://winnipegtransit.com/stops/10214,False
117,10226,10226,Northbound Arlington at Wolseley,49.87964894884171,-97.16972246306644,https://winnipegtransit.com/stops/10226,False
118,10233,10233,Northbound Valour at Portage,49.88300167840553,-97.18901526314784,https://winnipegtransit.com/stops/10233,False
119,10234,10234,Southbound Valour at Portage,49.88277998189512,-97.18921845002464,https://winnipegtransit.com/stops/10234,False
120,10235,10235,Northbound Valour at Riddle,49.88395415469383,-97.18895177776083,https://winnipegtransit.com/stops/10235,False
121,10236,10236,Southbound Valour at Riddle,49.88414598605108,-97.18913949521662,https://winnipegtransit.com/stops/10236,False
122,10239,10239,Northbound Valour at Wolever,49.88705365180174,-97.18871047664672,https://winnipegtransit.com/stops/10239,False
123,10240,10240,Southbound Valour at Wolever,49.887263463027615,-97.1888975318869,https://winnipegtransit.com/stops/10240,False
124,10243,10243,Northbound Valour at St. Matthews,49.890521507208376,-97.1884414242625,https://winnipegtransit.com/stops/10243,False
125,10244,10244,Southbound Valour at St. Matthews,49.890704349729646,-97.18862950102546,https://winnipegtransit.com/stops/10244,False
126,10246,10246,Northbound Valour at Ellice,49.89373786542604,-97.18819566968502,https://winnipegtransit.com/stops/10246,False
127,10247,10247,Southbound Valour at Ellice,49.893938687804685,-97.1883830843936,https://winnipegtransit.com/stops/10247,False
128,10250,10250,Southbound Valour at Sargent,49.89756857032963,-97.18812181266208,https://winnipegtransit.com/stops/10250,False
129,10251,10251,Northbound Valour at Sargent,49.89775365133346,-97.18787815320964,https://winnipegtransit.com/stops/10251,False
130,10252,10252,Southbound Valour at Wellington,49.900596139807,-97.1878830618363,https://winnipegtransit.com/stops/10252,False
131,10253,10253,Northbound Valour at Wellington,49.90071872787255,-97.1876695795604,https://winnipegtransit.com/stops/10253,False
132,10256,10256,Westbound Wellington at Erin,49.90079931249163,-97.183628027701,https://winnipegtransit.com/stops/10256,False
133,10257,10257,Eastbound Wellington at Erin,49.90067105507162,-97.18347965915264,https://winnipegtransit.com/stops/10257,False
134,10258,10258,Westbound Wellington at Wall,49.90073651181336,-97.18134652891314,https://winnipegtransit.com/stops/10258,False
135,10259,10259,Eastbound Wellington at Wall,49.90061830722169,-97.18183838114584,https://winnipegtransit.com/stops/10259,False
136,10262,10262,Eastbound Wellington at Dominion,49.90045466370626,-97.1765805493447,https://winnipegtransit.com/stops/10262,False
137,10263,10263,Westbound Wellington at Sherburn,49.900542146837694,-97.17528214131642,https://winnipegtransit.com/stops/10263,False
138,10266,10266,Westbound Wellington at Banning,49.90043485682806,-97.1719021992824,https://winnipegtransit.com/stops/10266,False
139,10267,10267,Eastbound Wellington at Banning,49.90028792324874,-97.17114183157204,https://winnipegtransit.com/stops/10267,False
140,10268,10268,Eastbound Wellington at Arlington,49.90021500618733,-97.16880505008034,https://winnipegtransit.com/stops/10268,False
141,10269,10269,Southbound Arlington at St. Paul,49.887981239625574,-97.16933769236952,https://winnipegtransit.com/stops/10269,False
142,10270,10270,Southbound Arlington at Portage,49.88586977699042,-97.16948718146293,https://winnipegtransit.com/stops/10270,False
143,10274,10274,Southbound Arlington at St. Matthews,49.89013764929936,-97.16918648691274,https://winnipegtransit.com/stops/10274,False
144,10275,10275,Northbound Arlington at St. Matthews,49.89068161473361,-97.16888744123123,https://winnipegtransit.com/stops/10275,False
145,10276,10276,Southbound Arlington at Ellice,49.89335417244128,-97.16895337135236,https://winnipegtransit.com/stops/10276,False
146,10277,10277,Northbound Arlington at Ellice,49.89352978267415,-97.16868217045956,https://winnipegtransit.com/stops/10277,False
147,10278,10278,Northbound Arlington at Sargent,49.89669258495401,-97.16846495775908,https://winnipegtransit.com/stops/10278,False
148,10279,10279,Southbound Arlington at Sargent,49.896947376121986,-97.1686502587122,https://winnipegtransit.com/stops/10279,False
149,10280,10280,Northbound Arlington at Wellington,49.90012419211485,-97.16818182736726,https://winnipegtransit.com/stops/10280,False
150,10281,10281,Southbound Arlington at Wellington,49.90037087485106,-97.16842315005972,https://winnipegtransit.com/stops/10281,False
151,10282,10282,Southbound Arlington at Adele,49.90197014309667,-97.1683068781674,https://winnipegtransit.com/stops/10282,False
152,10283,10283,Northbound Arlington at Adele,49.90249612506582,-97.16800842697964,https://winnipegtransit.com/stops/10283,False
153,10284,10284,Southbound Arlington at Notre Dame,49.90380247955726,-97.16813998814582,https://winnipegtransit.com/stops/10284,False
154,10285,10285,Northbound Arlington at Notre Dame,49.90397830714266,-97.16788264330256,https://winnipegtransit.com/stops/10285,False
155,10287,10287,Northbound Arlington at McDermot,49.905846731329234,-97.1665862371348,https://winnipegtransit.com/stops/10287,False
156,10288,10288,Southbound Arlington at Bannatyne,49.90601995794773,-97.16673287172851,https://winnipegtransit.com/stops/10288,False
157,10289,10289,Southbound Arlington at William,49.906935303646115,-97.16602963516232,https://winnipegtransit.com/stops/10289,False
158,10290,10290,Northbound Arlington at William,49.907188503829126,-97.16554648511212,https://winnipegtransit.com/stops/10290,False
159,10291,10291,Northbound Arlington at Ross,49.9088236114516,-97.164286613919,https://winnipegtransit.com/stops/10291,False
160,10292,10292,Southbound Arlington at Ross,49.908854552568904,-97.16453614899436,https://winnipegtransit.com/stops/10292,False
161,10293,10293,Southbound Arlington at Logan,49.910640703664654,-97.1631590296608,https://winnipegtransit.com/stops/10293,False
162,10294,10294,Northbound Arlington at Logan,49.91064527596594,-97.16288027913296,https://winnipegtransit.com/stops/10294,False
163,10295,10295,Southbound McPhillips at Notre Dame,49.90546706334055,-97.17158661990268,https://winnipegtransit.com/stops/10295,True
164,10300,10300,Northbound McPhillips at Pacific,49.91175668154072,-97.1705826571174,https://winnipegtransit.com/stops/10300,False
165,10301,10301,Southbound McPhillips at Pacific,49.911734991187544,-97.17091777735286,https://winnipegtransit.com/stops/10301,False
166,10302,10302,Southbound McPhillips at Logan,49.91384578666582,-97.17072647606416,https://winnipegtransit.com/stops/10302,True
167,10303,10303,Northbound McPhillips at Logan,49.914342604659026,-97.17028977922644,https://winnipegtransit.com/stops/10303,True
168,10307,10307,Eastbound Logan at McKelvey,49.92049566949706,-97.19208279504537,https://winnipegtransit.com/stops/10307,False
169,10310,10310,Westbound Logan at Lock,49.920230765361275,-97.19067168446658,https://winnipegtransit.com/stops/10310,False
170,10311,10311,Eastbound Logan at Cecil,49.91879349167019,-97.18676903968812,https://winnipegtransit.com/stops/10311,False
171,10312,10312,Westbound Logan at Cecil,49.91885995778672,-97.1864182667935,https://winnipegtransit.com/stops/10312,False
172,10313,10313,Eastbound Logan at Quelch,49.91788553591753,-97.1839333355115,https://winnipegtransit.com/stops/10313,False
173,10314,10314,Westbound Logan at Quelch,49.91789543453848,-97.1834175201827,https://winnipegtransit.com/stops/10314,False
174,10316,10316,Westbound Logan at Weston,49.91689159397101,-97.180209412778,https://winnipegtransit.com/stops/10316,False
175,10317,10317,Eastbound Logan at Electa,49.916267837208416,-97.17886771247636,https://winnipegtransit.com/stops/10317,False
176,10319,10319,Eastbound Logan at Winks,49.915331405635385,-97.1759497950007,https://winnipegtransit.com/stops/10319,False
177,10320,10320,Westbound Logan at Winks,49.91538819133235,-97.17555760689962,https://winnipegtransit.com/stops/10320,False
178,10321,10321,Eastbound Logan at Yeomans,49.91447055241411,-97.17326594177062,https://winnipegtransit.com/stops/10321,False
179,10322,10322,Westbound Logan at Yeomans,49.91454618699146,-97.17292876481136,https://winnipegtransit.com/stops/10322,False
180,10323,10323,Westbound Logan at McPhillips,49.91390104386392,-97.17080796373158,https://winnipegtransit.com/stops/10323,False
181,10324,10324,Eastbound Logan at McPhillips,49.91347542376958,-97.17005793783272,https://winnipegtransit.com/stops/10324,False
182,10325,10325,Eastbound Logan at Maude,49.91242715148226,-97.16690779700316,https://winnipegtransit.com/stops/10325,False
183,10326,10326,Westbound Logan at Maude,49.91274861831329,-97.16732742042144,https://winnipegtransit.com/stops/10326,False
184,10327,10327,Eastbound Wellington at St James,49.90117634165538,-97.20028337768906,https://winnipegtransit.com/stops/10327,False
185,10329,10329,Westbound Logan at Arlington,49.91116792794032,-97.16237290425114,https://winnipegtransit.com/stops/10329,False
186,10330,10330,Eastbound Logan at Arlington,49.91096028438673,-97.16232508089888,https://winnipegtransit.com/stops/10330,False
187,10331,10331,Eastbound Logan at Beacon,49.91036343623558,-97.16042559771378,https://winnipegtransit.com/stops/10331,False
188,10332,10332,Westbound Logan at Tecumseh,49.91024051798084,-97.1594831210584,https://winnipegtransit.com/stops/10332,False
189,10333,10333,Eastbound Logan at Nora,49.909493016703486,-97.15772872650253,https://winnipegtransit.com/stops/10333,False
190,10334,10334,Westbound Logan at Nora,49.909587914353374,-97.15747439679588,https://winnipegtransit.com/stops/10334,False
191,10335,10335,Eastbound Logan at Lulu,49.90884016135591,-97.15570613765506,https://winnipegtransit.com/stops/10335,False
192,10336,10336,Westbound Logan at Lulu,49.90893483278459,-97.15543788766963,https://winnipegtransit.com/stops/10336,False
193,10337,10337,Westbound Logan at Chambers,49.908291149388795,-97.1534289303624,https://winnipegtransit.com/stops/10337,False
194,10338,10338,Eastbound Logan at Sherbrook,49.907893497751765,-97.15274771373365,https://winnipegtransit.com/stops/10338,False
195,10339,10339,Eastbound Logan at Gunnell,49.90715498161741,-97.15043604876529,https://winnipegtransit.com/stops/10339,False
196,10340,10340,Westbound Logan at Gunnell,49.907211903561915,-97.15005781898462,https://winnipegtransit.com/stops/10340,False
197,10341,10341,Eastbound Logan at Isabel,49.90608397102869,-97.14702298357616,https://winnipegtransit.com/stops/10341,False
198,10342,10342,Westbound Logan at Isabel,49.906450678491616,-97.1474546160045,https://winnipegtransit.com/stops/10342,False
199,10343,10343,Eastbound Logan at Laura,49.90523278389173,-97.14442334000178,https://winnipegtransit.com/stops/10343,False
200,10344,10344,Westbound Logan at Laura,49.90531777030264,-97.14411367753918,https://winnipegtransit.com/stops/10344,False
201,10345,10345,Eastbound Logan at Fountain,49.90448533756238,-97.14212619667832,https://winnipegtransit.com/stops/10345,False
202,10346,10346,Westbound Logan at Fountain,49.904598626575954,-97.14189901013768,https://winnipegtransit.com/stops/10346,False
203,10347,10347,Eastbound Logan at Stanley,49.90377469858283,-97.13988341530376,https://winnipegtransit.com/stops/10347,False
204,10348,10348,Westbound Logan at Princess,49.903452989965075,-97.13833598801062,https://winnipegtransit.com/stops/10348,False
205,10351,10351,Eastbound Higgins at Point Douglas,49.902326310841474,-97.11540064673056,https://winnipegtransit.com/stops/10351,False
206,10352,10352,Westbound Higgins at Boyle,49.90228770761403,-97.11579209300088,https://winnipegtransit.com/stops/10352,False
207,10353,10353,Westbound Higgins at Maple,49.90415553943777,-97.13113653216558,https://winnipegtransit.com/stops/10353,False
208,10355,10355,Eastbound Higgins at Acores,49.90215918065647,-97.12005859640672,https://winnipegtransit.com/stops/10355,False
209,10356,10356,Westbound Higgins at Acores,49.90226903502249,-97.11962260497116,https://winnipegtransit.com/stops/10356,False
210,10357,10357,Westbound Higgins at Annabella,49.902631058973,-97.1219760487171,https://winnipegtransit.com/stops/10357,False
211,10358,10358,Eastbound Higgins at Annabella,49.902490615714015,-97.12219040085068,https://winnipegtransit.com/stops/10358,False
212,10359,10359,Westbound Higgins at Waterfront,49.9036763296592,-97.1265313278086,https://winnipegtransit.com/stops/10359,True
213,10368,10368,Eastbound Higgins at Maple,49.90404541688423,-97.13155859745056,https://winnipegtransit.com/stops/10368,False
214,10369,10369,Northbound St James at St. Matthews,49.89079445545319,-97.20075312995624,https://winnipegtransit.com/stops/10369,False
215,10370,10370,Northbound St James at Ellice,49.89391152864786,-97.20048403793366,https://winnipegtransit.com/stops/10370,False
216,10372,10372,Northbound St James at Wellington,49.90103543701407,-97.19989869234224,https://winnipegtransit.com/stops/10372,False
217,10374,10374,Northbound St James at Saskatchewan North,49.90836631275096,-97.19931936654712,https://winnipegtransit.com/stops/10374,False
218,10378,10378,Eastbound Taylor at Stafford,49.8578376720112,-97.1534051423684,https://winnipegtransit.com/stops/10378,False
219,10379,10379,Westbound Taylor at Stafford,49.85795153652558,-97.15377647107316,https://winnipegtransit.com/stops/10379,False
220,10381,10381,Westbound Polo Park West Access at Polo Park (FX4),49.88485754826512,-97.19958173941802,https://winnipegtransit.com/stops/10381,True
221,10383,10383,Southbound Empress at Eastway,49.882113407490856,-97.19664914039193,https://winnipegtransit.com/stops/10383,False
222,10386,10386,Westbound Westway at Empress,49.883782138065975,-97.1957934576361,https://winnipegtransit.com/stops/10386,False
223,10387,10387,Northbound Keewatin at Pacific,49.919883734132355,-97.19494770380264,https://winnipegtransit.com/stops/10387,False
224,10389,10389,Northbound Keewatin at William,49.916915611482416,-97.19496103024386,https://winnipegtransit.com/stops/10389,False
225,10390,10390,Eastbound Notre Dame at Keewatin,49.91636996660945,-97.19573364990362,https://winnipegtransit.com/stops/10390,False
226,10393,10393,Eastbound Notre Dame at Bannatyne,49.91407759882925,-97.19293574291154,https://winnipegtransit.com/stops/10393,False
227,10394,10394,Westbound Notre Dame at Bannatyne,49.91437382450404,-97.19289680992846,https://winnipegtransit.com/stops/10394,False
228,10399,10399,Westbound Notre Dame at Flint,49.910699842236646,-97.18803369019298,https://winnipegtransit.com/stops/10399,False
229,10402,10402,Westbound Sargent at Maryland,49.89663445628582,-97.15969453327097,https://winnipegtransit.com/stops/10402,False
230,10405,10405,Westbound Notre Dame at Erin,49.90918623862904,-97.18328511976274,https://winnipegtransit.com/stops/10405,False
231,10407,10407,Eastbound Notre Dame at Wall,49.90752158955683,-97.17866788450368,https://winnipegtransit.com/stops/10407,False
232,10408,10408,Westbound Notre Dame at Myrtle,49.90722824223418,-97.17717472775604,https://winnipegtransit.com/stops/10408,False
233,10411,10411,Westbound Notre Dame at Ingersoll,49.90615933266801,-97.17384455962306,https://winnipegtransit.com/stops/10411,False
234,10412,10412,Eastbound Notre Dame at Sherburn,49.90603655141466,-97.17404418144773,https://winnipegtransit.com/stops/10412,False
235,10413,10413,Eastbound Notre Dame at Lipton,49.90550611942112,-97.17235114726112,https://winnipegtransit.com/stops/10413,False
236,10414,10414,Westbound Notre Dame at McPhillips,49.90529689624983,-97.171063817131,https://winnipegtransit.com/stops/10414,True
237,10418,10418,Westbound Notre Dame at Tecumseh,49.90351943174057,-97.16560210887296,https://winnipegtransit.com/stops/10418,True
238,10419,10419,Eastbound Notre Dame at Simcoe,49.903424736052905,-97.16587030925888,https://winnipegtransit.com/stops/10419,True
239,10422,10422,Eastbound Notre Dame at McGee (HSC),49.901599870506935,-97.1602715395198,https://winnipegtransit.com/stops/10422,True
240,10423,10423,Westbound Notre Dame at Pearl (HSC),49.90188075843554,-97.16040011763468,https://winnipegtransit.com/stops/10423,True
241,10424,10424,Southbound Maryland at Notre Dame,49.90075521493799,-97.15976055568926,https://winnipegtransit.com/stops/10424,False
242,10426,10426,Southbound Maryland at Sargent,49.89628961430827,-97.16006969517244,https://winnipegtransit.com/stops/10426,False
243,10428,10428,Northbound Keewatin at Gallagher,49.92223091480222,-97.19491576684388,https://winnipegtransit.com/stops/10428,False
244,10429,10429,Southbound Maryland at Ellice,49.89258768052097,-97.1603218802397,https://winnipegtransit.com/stops/10429,False
245,10432,10432,Northbound Sherbrook at Portage North,49.88867940943957,-97.15891116104766,https://winnipegtransit.com/stops/10432,False
246,10434,10434,Northbound Sherbrook at Ellice,49.8927944188768,-97.15861532686752,https://winnipegtransit.com/stops/10434,False
247,10436,10436,Northbound Sherbrook at Sargent,49.89633453527812,-97.15836917036371,https://winnipegtransit.com/stops/10436,False
248,10438,10438,Northbound Sherbrook at Cumberland,49.89977576362003,-97.15812673657496,https://winnipegtransit.com/stops/10438,False
249,10439,10439,Northbound Sherbrook at Notre Dame,49.90127258959453,-97.1577912091943,https://winnipegtransit.com/stops/10439,False
250,10441,10441,Northbound Sherbrook at Bannatyne (HSC),49.903075754619586,-97.156357708099,https://winnipegtransit.com/stops/10441,False
251,10442,10442,Southbound Sherbrook at Bannatyne (HSC),49.902911380260925,-97.15676784651704,https://winnipegtransit.com/stops/10442,False
252,10453,10453,Westbound Sargent at Sanford,49.89767948423477,-97.19349273404924,https://winnipegtransit.com/stops/10453,False
253,10454,10454,Eastbound Sargent at Sanford,49.89752114321941,-97.1937214479478,https://winnipegtransit.com/stops/10454,False
254,10457,10457,Eastbound Sargent at Valour,49.897344045476785,-97.1881441479297,https://winnipegtransit.com/stops/10457,False
255,10458,10458,Westbound Sargent at Valour,49.89750106829758,-97.1878319157592,https://winnipegtransit.com/stops/10458,False
256,10460,10460,Eastbound Sargent at Erin,49.89720387657845,-97.1837908930388,https://winnipegtransit.com/stops/10460,False
257,10461,10461,Eastbound Sargent at Wall,49.897158157403666,-97.18202414383818,https://winnipegtransit.com/stops/10461,False
258,10462,10462,Westbound Sargent at Erin,49.89737642708004,-97.18389581407816,https://winnipegtransit.com/stops/10462,False
259,10465,10465,Eastbound Sargent at Dominion,49.89701534846349,-97.17751784648712,https://winnipegtransit.com/stops/10465,False
260,10466,10466,Westbound Sargent at Dominion,49.89717212308522,-97.1771916660508,https://winnipegtransit.com/stops/10466,False
261,10467,10467,Eastbound Sargent at Sherburn,49.896942781414424,-97.17519512653428,https://winnipegtransit.com/stops/10467,False
262,10468,10468,Westbound Sargent at Sherburn,49.897100646336376,-97.17493852246,https://winnipegtransit.com/stops/10468,False
263,10470,10470,Westbound Sargent at Banning,49.897011348536594,-97.17212906227938,https://winnipegtransit.com/stops/10470,False
264,10471,10471,Eastbound Sargent at Banning,49.896818369765754,-97.17130086392338,https://winnipegtransit.com/stops/10471,False
265,10473,10473,Eastbound Sargent at Arlington,49.89674237616633,-97.16876941866724,https://winnipegtransit.com/stops/10473,False
266,10474,10474,Westbound Sargent at Arlington,49.89689780476032,-97.1683597131854,https://winnipegtransit.com/stops/10474,False
267,10475,10475,Eastbound Sargent at Simcoe,49.89666764970668,-97.16632148156268,https://winnipegtransit.com/stops/10475,False
268,10476,10476,Westbound Sargent at Simcoe,49.89683166659725,-97.16645451250724,https://winnipegtransit.com/stops/10476,False
269,10479,10479,Westbound Sargent at Wall,49.89731494490347,-97.18169797669567,https://winnipegtransit.com/stops/10479,False
270,10480,10480,Eastbound Sargent at Agnes,49.89651384185304,-97.16116122317696,https://winnipegtransit.com/stops/10480,False
271,10481,10481,Westbound Sargent at Agnes,49.89669083226204,-97.16154438991904,https://winnipegtransit.com/stops/10481,False
272,10482,10482,Eastbound Sargent at Maryland,49.896480385705125,-97.1601877616249,https://winnipegtransit.com/stops/10482,False
273,10483,10483,Eastbound Sargent at Sherbrook,49.896409242060614,-97.15797643322816,https://winnipegtransit.com/stops/10483,False
274,10484,10484,Westbound Sargent at Sherbrook,49.89658491459498,-97.15827608901137,https://winnipegtransit.com/stops/10484,False
275,10485,10485,Eastbound Sargent at Young,49.89634027296236,-97.15590427524135,https://winnipegtransit.com/stops/10485,False
276,10486,10486,Westbound Sargent at Langside,49.89649809434959,-97.15564761260934,https://winnipegtransit.com/stops/10486,False
277,10487,10487,Westbound Sargent at Balmoral,49.89632631193037,-97.15277174396154,https://winnipegtransit.com/stops/10487,False
278,10488,10488,Eastbound Sargent at Balmoral,49.89615262406449,-97.15259735590534,https://winnipegtransit.com/stops/10488,False
279,10489,10489,Eastbound Cumberland at Sherbrook,49.89976433837396,-97.15797398883818,https://winnipegtransit.com/stops/10489,True
280,10491,10491,Eastbound Cumberland at Balmoral,49.898136200239456,-97.15232664255494,https://winnipegtransit.com/stops/10491,True
281,10493,10493,Westbound Ellice at St. James,49.89427535033729,-97.2001641747746,https://winnipegtransit.com/stops/10493,False
282,10496,10496,Eastbound Ellice at Empress,49.89396145804243,-97.19502397755912,https://winnipegtransit.com/stops/10496,False
283,10497,10497,Westbound Ellice at Empress,49.894137686563525,-97.19536550333248,https://winnipegtransit.com/stops/10497,False
284,10498,10498,Eastbound Ellice at Strathcona West,49.89387838066558,-97.19200557592194,https://winnipegtransit.com/stops/10498,False
285,10500,10500,Westbound Ellice at Strathcona,49.893988006428735,-97.1903862943996,https://winnipegtransit.com/stops/10500,False
286,10501,10501,Eastbound Ellice at Valour,49.89375998229,-97.18845939626632,https://winnipegtransit.com/stops/10501,False
287,10502,10502,Westbound Ellice at Valour,49.89391700632437,-97.18814718854104,https://winnipegtransit.com/stops/10502,False
288,10506,10506,Westbound Ellice at Erin,49.89379259727521,-97.18422529292528,https://winnipegtransit.com/stops/10506,False
289,10507,10507,Eastbound Ellice at Erin,49.89361349830052,-97.18370290677736,https://winnipegtransit.com/stops/10507,False
290,10508,10508,Eastbound Ellice at Wall,49.89355398148664,-97.18163048166326,https://winnipegtransit.com/stops/10508,False
291,10509,10509,Westbound Ellice at Wall,49.893730249056375,-97.1819719547534,https://winnipegtransit.com/stops/10509,False
292,10512,10512,Eastbound Ellice at Dominion,49.8934096270669,-97.17702711216184,https://winnipegtransit.com/stops/10512,False
293,10513,10513,Westbound Ellice at Dominion,49.89357363201597,-97.17716017107058,https://winnipegtransit.com/stops/10513,False
294,10514,10514,Eastbound Ellice at Ingersoll,49.893322357447005,-97.17434310093894,https://winnipegtransit.com/stops/10514,False
295,10515,10515,Westbound Ellice at Ingersoll,49.89348022075346,-97.17408651365692,https://winnipegtransit.com/stops/10515,False
296,10516,10516,Eastbound Ellice at Banning,49.89325148626065,-97.17213188875344,https://winnipegtransit.com/stops/10516,False
297,10517,10517,Westbound Ellice at Banning,49.89340934457832,-97.1718752947684,https://winnipegtransit.com/stops/10517,False
298,10518,10518,Westbound Ellice at Arlington,49.89334917575008,-97.16977506756854,https://winnipegtransit.com/stops/10518,False
299,10519,10519,Eastbound Ellice at Arlington,49.893170672202075,-97.16929448782491,https://winnipegtransit.com/stops/10519,False
300,10522,10522,Eastbound Ellice at Toronto,49.893019869825565,-97.16431548921555,https://winnipegtransit.com/stops/10522,False
301,10523,10523,Westbound Ellice at Toronto,49.89317793118541,-97.1640727868694,https://winnipegtransit.com/stops/10523,False
302,10525,10525,Westbound Ellice at McGee,49.89309168681943,-97.16147231226712,https://winnipegtransit.com/stops/10525,False
303,10526,10526,Eastbound Ellice at McGee,49.892905853503606,-97.16053256076188,https://winnipegtransit.com/stops/10526,False
304,10528,10528,Westbound Ellice at Sherbrook,49.89300928306552,-97.1585514535098,https://winnipegtransit.com/stops/10528,False
305,10529,10529,Eastbound Ellice at Sherbrook,49.89283073329671,-97.15807091978132,https://winnipegtransit.com/stops/10529,False
306,10530,10530,Eastbound Ellice at Langside,49.89274701453272,-97.1556374610615,https://winnipegtransit.com/stops/10530,False
307,10531,10531,Westbound Ellice at Langside,49.89292114123403,-97.15583967879851,https://winnipegtransit.com/stops/10531,False
308,10533,10533,Westbound Ellice at Spence,49.892861125013106,-97.15376733111212,https://winnipegtransit.com/stops/10533,False
309,10535,10535,Westbound Ellice at Balmoral,49.89333767410557,-97.15206435641076,https://winnipegtransit.com/stops/10535,False
310,10536,10536,Northbound Kennedy at Qu'Appelle,49.89482312007862,-97.14989111866691,https://winnipegtransit.com/stops/10536,False
311,10541,10541,Westbound Portage at Garry,49.894724051256354,-97.14089982436434,https://winnipegtransit.com/stops/10541,True
312,10542,10542,Westbound Portage at Donald (Canada Life Centre),49.893870943195815,-97.14323007576962,https://winnipegtransit.com/stops/10542,True
313,10543,10543,Westbound Portage at Edmonton (Portage Place),49.89246563222165,-97.14702946821048,https://winnipegtransit.com/stops/10543,True
314,10545,10545,Westbound Portage at Colony,49.891208569621185,-97.15054450587616,https://winnipegtransit.com/stops/10545,True
315,10546,10546,Westbound Portage at Spence (U of W),49.88999279516534,-97.1538350169732,https://winnipegtransit.com/stops/10546,True
316,10548,10548,Westbound Portage at Sherbrook,49.8885791963869,-97.15883143927589,https://winnipegtransit.com/stops/10548,True
317,10549,10549,Westbound Portage at Maryland,49.8879340261636,-97.16125062501692,https://winnipegtransit.com/stops/10549,True
318,10550,10550,Westbound Portage at Broadway,49.88703191469943,-97.164486974533,https://winnipegtransit.com/stops/10550,True
319,10552,10552,Westbound Portage at Burnell,49.88534296146702,-97.170871420863,https://winnipegtransit.com/stops/10552,True
320,10553,10553,Westbound Portage at Lipton,49.88493499795458,-97.17351799016352,https://winnipegtransit.com/stops/10553,False
321,10555,10555,Westbound Portage at Wall,49.88407037996677,-97.18030238948089,https://winnipegtransit.com/stops/10555,False
322,10557,10557,Westbound Portage at Erin,49.883260932831526,-97.18604040554472,https://winnipegtransit.com/stops/10557,False
323,10558,10558,Westbound Portage at Valour,49.882669711194026,-97.18906944767627,https://winnipegtransit.com/stops/10558,True
324,10561,10561,Westbound Portage at Tylehurst (Polo Park),49.88081204640024,-97.19914758490584,https://winnipegtransit.com/stops/10561,True
325,10562,10562,Eastbound Portage at Tylehurst (Polo Park),49.88039580167746,-97.1995667547574,https://winnipegtransit.com/stops/10562,True
326,10565,10565,Eastbound Portage at Craig,49.882232844337615,-97.18989319067842,https://winnipegtransit.com/stops/10565,True
327,10566,10566,Eastbound Portage at Erin,49.88284844226862,-97.18669622346536,https://winnipegtransit.com/stops/10566,False
328,10568,10568,Eastbound Portage at Sprague,49.88365505360796,-97.1813481636369,https://winnipegtransit.com/stops/10568,False
329,10569,10569,Eastbound Portage at Dominion,49.88403163214695,-97.17841056963532,https://winnipegtransit.com/stops/10569,True
330,10571,10571,Eastbound Portage at Lipton,49.884688764896886,-97.17330454221398,https://winnipegtransit.com/stops/10571,False
331,10573,10573,Eastbound Portage at Arlington,49.88538521690363,-97.1695611974742,https://winnipegtransit.com/stops/10573,True
332,10575,10575,Eastbound Portage at Broadway,49.88684793074922,-97.16422943589544,https://winnipegtransit.com/stops/10575,True
333,10576,10576,Eastbound Portage at Maryland,49.88779844623893,-97.16064319767509,https://winnipegtransit.com/stops/10576,True
334,10577,10577,Eastbound Portage at Sherbrook,49.88838466111531,-97.15847685844872,https://winnipegtransit.com/stops/10577,True
335,10579,10579,Eastbound Portage at Balmoral (U of Winnipeg),49.88993608423463,-97.15309926786396,https://winnipegtransit.com/stops/10579,True
336,10580,10580,Eastbound Portage at Vaughan (The Bay),49.891203995508654,-97.14969536203162,https://winnipegtransit.com/stops/10580,True
337,10581,10581,Eastbound Portage at Edmonton (Portage Place),49.89201562979916,-97.14757579661158,https://winnipegtransit.com/stops/10581,True
338,10582,10582,Eastbound Portage at Donald (Canada Life Centre),49.89348975141049,-97.14357888074984,https://winnipegtransit.com/stops/10582,True
339,10583,10583,Eastbound Portage at Fort,49.89479132125154,-97.14004785655725,https://winnipegtransit.com/stops/10583,True
340,10585,10585,Eastbound Broadway at Osborne East (Legislature),49.88551714686225,-97.14900791395492,https://winnipegtransit.com/stops/10585,False
341,10586,10586,Eastbound Broadway at Edmonton,49.88650462486032,-97.1443898325602,https://winnipegtransit.com/stops/10586,False
342,10588,10588,Eastbound Broadway at Donald,49.887412304336515,-97.1404150480296,https://winnipegtransit.com/stops/10588,False
343,10589,10589,Eastbound Broadway at Smith,49.88787407462866,-97.13836464352572,https://winnipegtransit.com/stops/10589,False
344,10590,10590,Westbound Broadway at Smith,49.8881055234655,-97.13877341000816,https://winnipegtransit.com/stops/10590,False
345,10591,10591,Westbound Broadway at Donald,49.887634979977605,-97.14083807973896,https://winnipegtransit.com/stops/10591,False
346,10593,10593,Westbound Broadway at Edmonton,49.8869127886797,-97.1440400513638,https://winnipegtransit.com/stops/10593,False
347,10595,10595,Northbound Osborne at Assiniboine,49.883205592724806,-97.14845596399113,https://winnipegtransit.com/stops/10595,True
348,10596,10596,Northbound Osborne at Broadway (Legislature),49.88519187485497,-97.14947976631107,https://winnipegtransit.com/stops/10596,True
349,10598,10598,Southbound Osborne at York,49.88794413344428,-97.150028857977,https://winnipegtransit.com/stops/10598,True
350,10599,10599,Southbound Osborne at Broadway (Legislature),49.885640812419915,-97.14999162119976,https://winnipegtransit.com/stops/10599,True
351,10600,10600,Southbound Osborne at Granite,49.88331093020371,-97.14885564244786,https://winnipegtransit.com/stops/10600,True
352,10607,10607,Northbound Osborne at York,49.88727423854226,-97.14976210521232,https://winnipegtransit.com/stops/10607,True
353,10609,10609,Northbound St James at Superstore,49.89973300370383,-97.20001679454911,https://winnipegtransit.com/stops/10609,False
354,10611,10611,Eastbound Graham at Fort (Wpg Square),49.89289396056128,-97.13896513270365,https://winnipegtransit.com/stops/10611,False
355,10625,10625,Northbound Main at Broadway (Union Station),49.88925684269111,-97.13485860670144,https://winnipegtransit.com/stops/10625,True
356,10627,10627,Northbound Main at Portage and Main Junction,49.89490070138789,-97.13789930305114,https://winnipegtransit.com/stops/10627,True
357,10628,10628,Northbound Main at McDermot,49.8969808091659,-97.13859902362526,https://winnipegtransit.com/stops/10628,True
358,10629,10629,Northbound Main at James (Concert Hall),49.89990062756478,-97.13781821612318,https://winnipegtransit.com/stops/10629,True
359,10630,10630,Northbound Main at Logan,49.90235911964378,-97.13575991706476,https://winnipegtransit.com/stops/10630,False
360,10631,10631,Northbound Main at Higgins,49.90427121986661,-97.13440491710436,https://winnipegtransit.com/stops/10631,True
361,10632,10632,Southbound Main at Higgins,49.90340527950955,-97.13537141844049,https://winnipegtransit.com/stops/10632,True
362,10633,10633,Southbound Main at Alexander,49.901780157006975,-97.1366735193475,https://winnipegtransit.com/stops/10633,False
363,10635,10635,Southbound Main at William (City Hall),49.89903036515417,-97.13907716881502,https://winnipegtransit.com/stops/10635,True
364,10636,10636,Southbound Main at McDermot,49.89711471591909,-97.13909516968349,https://winnipegtransit.com/stops/10636,True
365,10638,10638,Southbound Main at Portage and Main Junction,49.894064458060654,-97.13791756837088,https://winnipegtransit.com/stops/10638,True
366,10639,10639,Southbound Main at St. Mary,49.89135108397374,-97.13643474615122,https://winnipegtransit.com/stops/10639,True
367,10640,10640,Northbound Smith at Portage North,49.89451378063114,-97.1423699486405,https://winnipegtransit.com/stops/10640,True
368,10641,10641,Southbound Main at Broadway (Union Station),49.88825654763779,-97.13474401922451,https://winnipegtransit.com/stops/10641,True
369,10646,10646,Northbound Fort at Portage,49.89477316360608,-97.13947765843248,https://winnipegtransit.com/stops/10646,False
370,10648,10648,Southbound Garry at Portage North,49.89477547875214,-97.14130165257286,https://winnipegtransit.com/stops/10648,False
371,10651,10651,Northbound Smith at Broadway,49.88840664995304,-97.13904027599868,https://winnipegtransit.com/stops/10651,True
372,10652,10652,Northbound Smith at St. Mary,49.89086582850485,-97.14037977318362,https://winnipegtransit.com/stops/10652,True
373,10653,10653,Northbound Smith at Graham South,49.89218159425821,-97.14109499261532,https://winnipegtransit.com/stops/10653,True
374,10655,10655,Northbound King at Notre Dame,49.89631323939863,-97.14239831770476,https://winnipegtransit.com/stops/10655,True
375,10656,10656,Northbound King at McDermot,49.89735294692517,-97.1416064368961,https://winnipegtransit.com/stops/10656,True
376,10657,10657,Northbound King at William (City Hall),49.89964518408364,-97.1398333525765,https://winnipegtransit.com/stops/10657,True
377,10658,10658,Northbound King at Rupert,49.90098581504399,-97.1387373328985,https://winnipegtransit.com/stops/10658,False
378,10664,10664,Southbound Princess at James,49.901094006160314,-97.1404321558456,https://winnipegtransit.com/stops/10664,False
379,10666,10666,Southbound Princess at McDermot,49.897892649764245,-97.14272756690588,https://winnipegtransit.com/stops/10666,True
380,10667,10667,Southbound Donald at Notre Dame,49.89630272694363,-97.1439861412164,https://winnipegtransit.com/stops/10667,True
381,10668,10668,Southbound Donald at Ellice,49.89455988199535,-97.14412263168248,https://winnipegtransit.com/stops/10668,True
382,10669,10669,Southbound Donald at Portage South,49.89310795282576,-97.14332897939435,https://winnipegtransit.com/stops/10669,True
383,10670,10670,Southbound Donald at Graham,49.89170163562447,-97.142575392535,https://winnipegtransit.com/stops/10670,True
384,10671,10671,Southbound Donald at St. Mary,49.89037666572962,-97.14184657012476,https://winnipegtransit.com/stops/10671,True
385,10673,10673,Southbound Donald at Broadway,49.88780873551899,-97.14045550158012,https://winnipegtransit.com/stops/10673,True
386,10696,10696,Southbound Kennedy at Qu'Appelle,49.895181271768365,-97.15035085049094,https://winnipegtransit.com/stops/10696,False
387,10710,10710,Eastbound William Stephenson at Portage and Main Junction,49.89360292713449,-97.13662648073796,https://winnipegtransit.com/stops/10710,False
388,10712,10712,Eastbound Disraeli at Martha,49.90152383766292,-97.13416274368063,https://winnipegtransit.com/stops/10712,True
389,10713,10713,Westbound William at McPhillips,49.909003005213265,-97.17050578046825,https://winnipegtransit.com/stops/10713,False
390,10714,10714,Eastbound Disraeli at Henry,49.9024686743236,-97.1297255082803,https://winnipegtransit.com/stops/10714,True
391,10715,10715,Westbound Disraeli at Henry,49.90263655390115,-97.13009503340092,https://winnipegtransit.com/stops/10715,True
392,10716,10716,Westbound Disraeli at Martha,49.90171979275626,-97.13460082550463,https://winnipegtransit.com/stops/10716,True
393,10721,10721,Eastbound William at Princess (RRC Polytech),49.89954682429214,-97.14154999328936,https://winnipegtransit.com/stops/10721,False
394,10722,10722,Westbound William at Princess (RRC Polytech),49.89978345471247,-97.14172193541548,https://winnipegtransit.com/stops/10722,False
395,10724,10724,Westbound William at Ellen,49.90089102063489,-97.14516089401204,https://winnipegtransit.com/stops/10724,False
396,10725,10725,Eastbound William at Ellen,49.900853430745954,-97.14562189506674,https://winnipegtransit.com/stops/10725,False
397,10728,10728,Westbound William at Isabel,49.90246233242785,-97.15004453758044,https://winnipegtransit.com/stops/10728,False
398,10729,10729,Eastbound William at Isabel,49.90227355279027,-97.15005175889584,https://winnipegtransit.com/stops/10729,False
399,10730,10730,Eastbound Stradbrook at Donald,49.879944053988886,-97.13802935805217,https://winnipegtransit.com/stops/10730,False
400,10732,10732,Eastbound William at Kate,49.90302106402042,-97.15236284299792,https://winnipegtransit.com/stops/10732,False
401,10733,10733,Westbound William at Kate,49.903163119252,-97.15224600207742,https://winnipegtransit.com/stops/10733,False
402,10735,10735,Northbound Balmoral at Sargent,49.89645049441163,-97.15209861293155,https://winnipegtransit.com/stops/10735,True
403,10740,10740,Westbound William at Health Sciences Centre,49.90557627096227,-97.15974422081771,https://winnipegtransit.com/stops/10740,False
404,10741,10741,Eastbound William at Health Sciences Centre,49.905084555363054,-97.1588019536682,https://winnipegtransit.com/stops/10741,False
405,10743,10743,Eastbound William at Tecumseh,49.90633353297763,-97.16268198050165,https://winnipegtransit.com/stops/10743,False
406,10744,10744,Westbound William at Tecumseh,49.90624769711345,-97.16180780477676,https://winnipegtransit.com/stops/10744,False
407,10746,10746,Westbound William at Arlington,49.90755404116114,-97.1659086716036,https://winnipegtransit.com/stops/10746,False
408,10749,10749,Eastbound William at McPhillips,49.90877540567465,-97.17033332458438,https://winnipegtransit.com/stops/10749,False
409,10750,10750,Southbound Isabel at Notre Dame,49.8991532307573,-97.15180039711204,https://winnipegtransit.com/stops/10750,True
410,10751,10751,Northbound Isabel at Notre Dame,49.899539881063085,-97.151228596022,https://winnipegtransit.com/stops/10751,True
411,10754,10754,Northbound Isabel at William,49.90201005721844,-97.1493237405344,https://winnipegtransit.com/stops/10754,True
412,10755,10755,Southbound Isabel at William,49.90223657464365,-97.14942648379792,https://winnipegtransit.com/stops/10755,True
413,10756,10756,Southbound Isabel at Ross,49.90359972931829,-97.1486083446584,https://winnipegtransit.com/stops/10756,True
414,10757,10757,Northbound Isabel at Ross,49.904076034934064,-97.1480191038206,https://winnipegtransit.com/stops/10757,True
415,10758,10758,Southbound Isabel at Alexander,49.90538746893134,-97.14734214749149,https://winnipegtransit.com/stops/10758,True
416,10759,10759,Northbound Isabel at Logan,49.90563160055825,-97.14685926188804,https://winnipegtransit.com/stops/10759,True
417,10761,10761,Westbound Pioneer at Portage and Main Junction,49.89450900608592,-97.13759412352408,https://winnipegtransit.com/stops/10761,True
418,10763,10763,Eastbound Portage at Portage and Main Junction,49.89511334794,-97.13713919981188,https://winnipegtransit.com/stops/10763,True
419,10765,10765,Northbound King at Notre Dame,49.896098102809745,-97.14300534057432,https://winnipegtransit.com/stops/10765,True
420,10767,10767,Westbound Notre Dame at Dagmar,49.89764848599027,-97.14713728027851,https://winnipegtransit.com/stops/10767,True
421,10769,10769,Westbound Notre Dame at Isabel,49.89939939771922,-97.15257082494875,https://winnipegtransit.com/stops/10769,True
422,10771,10771,Westbound Notre Dame at Sherbrook,49.90106649437267,-97.15784083776693,https://winnipegtransit.com/stops/10771,True
423,10779,10779,Eastbound Grant at Pembina,49.86461704309969,-97.14759431728292,https://winnipegtransit.com/stops/10779,True
424,10781,10781,Westbound Grant at Lilac,49.86355804775611,-97.15281131758944,https://winnipegtransit.com/stops/10781,True
425,10782,10782,Westbound Grant at Stafford,49.86232207941887,-97.15653200388736,https://winnipegtransit.com/stops/10782,True
426,10785,10785,Eastbound Grant at Stafford,49.862001775853784,-97.15675291859874,https://winnipegtransit.com/stops/10785,True
427,10786,10786,Eastbound Grant at Lilac,49.863460604996106,-97.15234191507238,https://winnipegtransit.com/stops/10786,True
428,10788,10788,Eastbound James at Main,49.900134988483494,-97.13840800400496,https://winnipegtransit.com/stops/10788,True
429,10789,10789,Eastbound Notre Dame at Arlington,49.90417237430657,-97.16820953812504,https://winnipegtransit.com/stops/10789,True
430,10790,10790,Southbound Balmoral at Sargent,49.89638279841965,-97.1523657692312,https://winnipegtransit.com/stops/10790,True
431,10798,10798,Southbound Stafford at Grosvenor,49.8703369273021,-97.16333856539012,https://winnipegtransit.com/stops/10798,False
432,10801,10801,Eastbound Notre Dame at Dublin,49.91147074365213,-97.1901637996936,https://winnipegtransit.com/stops/10801,False
433,10803,10803,Eastbound William Stephenson at Canadian Museum for Human Rights,49.89240162889352,-97.13296906744426,https://winnipegtransit.com/stops/10803,True
434,10804,10804,Westbound Pioneer at Canadian Museum for Human Rights,49.89252209427399,-97.13263025053205,https://winnipegtransit.com/stops/10804,True
435,10811,10811,Eastbound Maroons at St. James,49.88788578226525,-97.2005410779128,https://winnipegtransit.com/stops/10811,False
436,10812,10812,Eastbound Maroons at Empress,49.88773417957613,-97.19657889064388,https://winnipegtransit.com/stops/10812,False
437,10815,10815,Southbound Maryland at Misericordia Health Centre,49.88010755643578,-97.16119997456784,https://winnipegtransit.com/stops/10815,False
438,10817,10817,Southbound Stafford at Pembina,49.85683350549028,-97.1524834006153,https://winnipegtransit.com/stops/10817,False
439,10818,10818,Northbound St James at Costco,49.90418889358765,-97.19965596988948,https://winnipegtransit.com/stops/10818,False
440,10825,10825,Southbound Polo Park at Polo Park Hub (680),49.88163098258673,-97.19917279484012,https://winnipegtransit.com/stops/10825,False
441,10826,10826,Southbound Polo Park at Polo Park Hub (70),49.88145140328877,-97.19919339710698,https://winnipegtransit.com/stops/10826,False
442,10827,10827,Southbound Polo Park at Polo Park Hub (22),49.88124485462154,-97.1992150026622,https://winnipegtransit.com/stops/10827,False
443,10832,10832,Southbound Balmoral at Cumberland,49.89782989005566,-97.15229656793156,https://winnipegtransit.com/stops/10832,True
444,10835,10835,Northbound Balmoral at Ellice North,49.89395007280808,-97.15211058343908,https://winnipegtransit.com/stops/10835,True
445,10839,10839,Northbound Balmoral at Cumberland,49.89805961934849,-97.1520371381102,https://winnipegtransit.com/stops/10839,True
446,10870,10870,Westbound Broadway at Osborne East (Legislature),49.885599294969104,-97.14964516734771,https://winnipegtransit.com/stops/10870,False
447,10881,10881,Southbound Polo Park at Polo Park Hub (D16),49.88109246106621,-97.19924851335868,https://winnipegtransit.com/stops/10881,False
448,10901,10901,Southbound Israel Asper at Canadian Museum for Human Rights,49.88976729591246,-97.13192904986732,https://winnipegtransit.com/stops/10901,False
449,10902,10902,Northbound Israel Asper at Canadian Museum for Human Rights,49.88925512936345,-97.13140583832558,https://winnipegtransit.com/stops/10902,False
450,10903,10903,Northbound Israel Asper at William Stephenson,49.8928762915556,-97.1317254576883,https://winnipegtransit.com/stops/10903,False
451,10904,10904,Northbound Riverview Centre Access at Riverview Centre (Main Entrance),49.868505104419576,-97.12039141711188,https://winnipegtransit.com/stops/10904,False
452,10907,10907,Eastbound Forks Market at The Forks Market,49.887822668560275,-97.13070935353262,https://winnipegtransit.com/stops/10907,False
453,10908,10908,Westbound Tecumseh at Tecumseh Loop,49.9064336047789,-97.16161967837506,https://winnipegtransit.com/stops/10908,False
454,10910,10910,Northbound Osborne at Osborne Station,49.87393476690385,-97.141350363071,https://winnipegtransit.com/stops/10910,True
455,10911,10911,Southbound Osborne at Osborne Station,49.87383923245959,-97.14156280506424,https://winnipegtransit.com/stops/10911,True
456,10939,10939,Southbound Israel Asper at William Stephenson,49.891586295320494,-97.1326106774134,https://winnipegtransit.com/stops/10939,False
457,10940,10940,Eastbound Ellice at Edmonton,49.89401544631507,-97.14832074008602,https://winnipegtransit.com/stops/10940,False
458,11005,11005,Westbound Ellice at Smith,49.89543020242428,-97.1428638868414,https://winnipegtransit.com/stops/11005,False
459,11016,11016,Westbound River at Donald,49.88244387066379,-97.13686128375498,https://winnipegtransit.com/stops/11016,False
460,11023,11023,Northbound St James at Ness,49.88329209201088,-97.20129656750316,https://winnipegtransit.com/stops/11023,True
461,11025,11025,Eastbound Ellice at Balmoral,49.89288087848398,-97.15275014453874,https://winnipegtransit.com/stops/11025,False
462,11027,11027,Southbound Southwest Transitway at Harkness Station,49.8807570744673,-97.1354506707884,https://winnipegtransit.com/stops/11027,True
463,11028,11028,Northbound Southwest Transitway at Harkness Station,49.88091913355152,-97.13490153505047,https://winnipegtransit.com/stops/11028,True
464,11029,11029,Southbound Southwest Transitway at Osborne Station,49.87328305505622,-97.1410970220562,https://winnipegtransit.com/stops/11029,True
465,11030,11030,Northbound Southwest Transitway at Osborne Station,49.8735739001523,-97.14072398095963,https://winnipegtransit.com/stops/11030,True
466,11031,11031,Southbound Southwest Transitway at Fort Rouge Station,49.862411064961776,-97.14577234321878,https://winnipegtransit.com/stops/11031,True
467,11032,11032,Northbound Southwest Transitway at Fort Rouge Station,49.86298491251283,-97.14509636033004,https://winnipegtransit.com/stops/11032,True
468,11033,11033,Southbound Southwest Transitway at Jubilee Station,49.85569247453471,-97.15031474518727,https://winnipegtransit.com/stops/11033,True
469,11034,11034,Northbound Southwest Transitway at Jubilee Station,49.85614116382014,-97.14968543279382,https://winnipegtransit.com/stops/11034,True
470,11037,11037,"Southbound Fort Rouge Station at Fort Rouge Station (F5, 557 to Windermere)",49.86254865903626,-97.14537745463684,https://winnipegtransit.com/stops/11037,True
471,11038,11038,Southbound Fort Rouge Station at Fort Rouge Station (557 to Sage Creek),49.8623978421932,-97.14550846493412,https://winnipegtransit.com/stops/11038,False
472,11045,11045,Westbound Wolseley at Misericordia Health Centre,49.88034246538025,-97.16013312102956,https://winnipegtransit.com/stops/11045,False
473,11051,11051,Northbound Main at St. Mary,49.89175202506861,-97.13619652709178,https://winnipegtransit.com/stops/11051,True
474,11052,11052,Westbound Broadway at Main,49.88878598076956,-97.135781725487,https://winnipegtransit.com/stops/11052,False
475,11054,11054,Eastbound Wolseley at Palmerston,49.879230575901346,-97.16602170051137,https://winnipegtransit.com/stops/11054,False
476,11056,11056,Westbound Wolseley at Maryland,49.880389769527696,-97.16141197477044,https://winnipegtransit.com/stops/11056,False
477,11057,11057,Westbound Wolseley at Canora,49.8793566510296,-97.16603084321684,https://winnipegtransit.com/stops/11057,False
478,11059,11059,Eastbound Ellice at Smith,49.89535136526978,-97.14243525521768,https://winnipegtransit.com/stops/11059,False
479,11060,11060,Northbound Main at Graham (Portage and Main),49.8931496162794,-97.13696418952183,https://winnipegtransit.com/stops/11060,True
480,11100,11100,Northbound Arlington at Portage South,49.8853632774798,-97.16931143945789,https://winnipegtransit.com/stops/11100,False
481,11102,11102,Eastbound William at Furby,49.90363646398275,-97.15428908762492,https://winnipegtransit.com/stops/11102,False
482,11103,11103,Westbound William at Furby,49.903778077379165,-97.15414441396756,https://winnipegtransit.com/stops/11103,False
483,11104,11104,Eastbound Ellice at Donald,49.8949230307644,-97.14433148887105,https://winnipegtransit.com/stops/11104,False
484,11105,11105,Westbound Ellice at Donald,49.89507741349182,-97.14442303727128,https://winnipegtransit.com/stops/11105,False
485,11106,11106,Westbound Ellice at Edmonton,49.89427124489855,-97.1480046176612,https://winnipegtransit.com/stops/11106,False
486,11107,11107,Southbound Erin at Portage,49.88437221806857,-97.18520523973724,https://winnipegtransit.com/stops/11107,False
487,11108,11108,Eastbound Broadway at Portage,49.88626774174403,-97.16394516690968,https://winnipegtransit.com/stops/11108,False
488,11109,11109,Westbound Broadway at Maryland,49.88592559109576,-97.16109027460256,https://winnipegtransit.com/stops/11109,True
489,11110,11110,Northbound Tecumseh at William,49.90619714324744,-97.16258966990674,https://winnipegtransit.com/stops/11110,False
490,11111,11111,Southbound Arlington at Portage South,49.88514161685914,-97.16951472588777,https://winnipegtransit.com/stops/11111,False
491,11112,11112,Northbound Arlington at Westminster,49.88178738318672,-97.16957199075996,https://winnipegtransit.com/stops/11112,False
492,11113,11113,Northbound Arlington at Portage North,49.88607301817939,-97.16925674510284,https://winnipegtransit.com/stops/11113,False
493,11114,11114,Northbound Arlington at St. Paul,49.888094364016034,-97.16909673267584,https://winnipegtransit.com/stops/11114,False
494,11115,11115,Southbound Arlington at Westminster,49.88141311788725,-97.16979495187368,https://winnipegtransit.com/stops/11115,False
495,11116,11116,Southbound Arlington at Wolseley,49.87954437228502,-97.16993521573512,https://winnipegtransit.com/stops/11116,False
496,11117,11117,Northbound Waterfront at Lombard,49.89554208281244,-97.13304280265844,https://winnipegtransit.com/stops/11117,False
497,11118,11118,Northbound Waterfront at James,49.89867939302325,-97.13292170706669,https://winnipegtransit.com/stops/11118,False
498,11119,11119,Northbound Waterfront at George,49.90084472821325,-97.12886918860998,https://winnipegtransit.com/stops/11119,False
499,11120,11120,Southbound Waterfront at George,49.9006836048652,-97.13003128156775,https://winnipegtransit.com/stops/11120,False
500,11121,11121,Southbound Waterfront at James,49.89820136990902,-97.13339969419984,https://winnipegtransit.com/stops/11121,False
501,11122,11122,Southbound Waterfront at Lombard,49.89550926689102,-97.13323901247745,https://winnipegtransit.com/stops/11122,False
502,11123,11123,Westbound Maroons at Empress,49.88787357735962,-97.19686606216504,https://winnipegtransit.com/stops/11123,False
503,11124,11124,Westbound Maroons at St. James,49.887999837769,-97.20035584684616,https://winnipegtransit.com/stops/11124,False
504,11125,11125,Eastbound Morley at Daly,49.86300318065412,-97.14062889632632,https://winnipegtransit.com/stops/11125,False
505,11126,11126,Eastbound William at Arlington,49.90710930825104,-97.1650898716508,https://winnipegtransit.com/stops/11126,False
506,11127,11127,Northbound Wall at Wolever,49.88736136737131,-97.18251754416566,https://winnipegtransit.com/stops/11127,False
507,11128,11128,Northbound Wall at St. Matthews,49.89064962793767,-97.182268715783,https://winnipegtransit.com/stops/11128,False
508,11129,11129,Northbound Wall at Ellice,49.89382979111745,-97.18200998581212,https://winnipegtransit.com/stops/11129,False
509,11130,11130,Northbound Wall at Sargent,49.89743246636926,-97.1817353339599,https://winnipegtransit.com/stops/11130,False
510,11131,11131,Northbound Wall at Wellington,49.900855345030095,-97.18146739438812,https://winnipegtransit.com/stops/11131,False
511,11132,11132,Northbound Wall at Richard,49.904089656488885,-97.18122042933312,https://winnipegtransit.com/stops/11132,False
512,11133,11133,Northbound Wall at Notre Dame,49.90667714750636,-97.18102561324008,https://winnipegtransit.com/stops/11133,False
513,11134,11134,Southbound Erin at Richard,49.9043890316062,-97.1836742508167,https://winnipegtransit.com/stops/11134,False
514,11135,11135,Southbound Erin at Wellington,49.90055262302006,-97.1839575880348,https://winnipegtransit.com/stops/11135,False
515,11136,11136,Southbound Erin at Sargent,49.89712074674331,-97.18422568673614,https://winnipegtransit.com/stops/11136,False
516,11137,11137,Southbound Erin at Ellice,49.8935092918242,-97.184514403927,https://winnipegtransit.com/stops/11137,False
517,11138,11138,Southbound Erin at St. Matthews,49.89018572215573,-97.18480619299656,https://winnipegtransit.com/stops/11138,False
518,11139,11139,Eastbound Rathgar at Lilac,49.8571396833858,-97.14687851222054,https://winnipegtransit.com/stops/11139,False
519,11140,11140,Eastbound Rathgar at Cockburn,49.85855720712318,-97.14271968777534,https://winnipegtransit.com/stops/11140,False
520,11141,11141,Westbound Beresford at Lilac,49.85647431616615,-97.14633352232988,https://winnipegtransit.com/stops/11141,False
521,11142,11142,Eastbound Higgins at Waterfront,49.9035050808822,-97.12651010846652,https://winnipegtransit.com/stops/11142,True
522,11144,11144,Westbound Notre Dame at Arlington,49.90445479524514,-97.1684355999874,https://winnipegtransit.com/stops/11144,True
523,11145,11145,Southbound Princess at William (RRC Polytech),49.89933219410641,-97.14162786837085,https://winnipegtransit.com/stops/11145,True
524,11146,11146,Northbound Stafford at Grant,49.862460245611786,-97.15673546935852,https://winnipegtransit.com/stops/11146,False
525,11147,11147,Northbound Stafford at Grosvenor,49.870723922505256,-97.163351719488,https://winnipegtransit.com/stops/11147,False
526,11148,11148,Eastbound Notre Dame at Erin,49.90900819262232,-97.18340323636032,https://winnipegtransit.com/stops/11148,False
527,11149,11149,Eastbound Grosvenor at Stafford,49.87050177073247,-97.1629565454988,https://winnipegtransit.com/stops/11149,False
528,11150,11150,Eastbound Logan at Keewatin,49.92153557782851,-97.1953178998994,https://winnipegtransit.com/stops/11150,False
529,11151,11151,Northbound St James at Sargent,49.89817885652529,-97.20014425592164,https://winnipegtransit.com/stops/11151,False
530,11152,11152,Northbound Tecumseh at Notre Dame,49.903548717855024,-97.16461219569548,https://winnipegtransit.com/stops/11152,False
531,11153,11153,Westbound Morley at Osborne,49.86509454433203,-97.1347596392818,https://winnipegtransit.com/stops/11153,False
532,11154,11154,Eastbound Morley at Osborne,49.864993866969186,-97.13465219125747,https://winnipegtransit.com/stops/11154,False
533,17001,17001,Eastbound Webb at Vaughan,49.89271772191654,-97.15154501338034,https://winnipegtransit.com/stops/17001,False
534,17003,17003,Westbound Station at Jubilee Station,49.85567824924664,-97.14942485387948,https://winnipegtransit.com/stops/17003,False
535,17005,17005,Southbound Wolever at Erin,49.88690600736186,-97.18502668107698,https://winnipegtransit.com/stops/17005,False
536,17006,17006,Westbound Broadway at Portage,49.886635489682625,-97.16444632433256,https://winnipegtransit.com/stops/17006,False
537,17007,17007,Westbound Graham at Graham (Portage & Main),49.89314704805488,-97.13848198630971,https://winnipegtransit.com/stops/17007,True
538,17008,17008,Eastbound Corydon at Osborne,49.87446844048537,-97.14209538789248,https://winnipegtransit.com/stops/17008,True
539,17009,17009,Northbound Donald at Stradbrook,49.88046637616302,-97.13750813708404,https://winnipegtransit.com/stops/17009,True
540,17010,17010,Northbound Donald at River,49.8824712869189,-97.13688806980038,https://winnipegtransit.com/stops/17010,True
541,17011,17011,Northbound McPhillips at William,49.908909617961825,-97.17085752232012,https://winnipegtransit.com/stops/17011,True
542,17012,17012,Southbound McPhillips at William,49.909005890765954,-97.1712578025936,https://winnipegtransit.com/stops/17012,True
543,17013,17013,Eastbound Cumberland at Carlton,49.896894760073366,-97.14837761846071,https://winnipegtransit.com/stops/17013,True
544,17015,17015,Northbound Colony at Portage North,49.891430542141904,-97.15092587344856,https://winnipegtransit.com/stops/17015,True
545,17016,17016,Southbound Balmoral at Ellice,49.89337152784626,-97.15249470347904,https://winnipegtransit.com/stops/17016,True
546,17018,17018,Southbound Memorial at Portage,49.89007499996928,-97.15053214594452,https://winnipegtransit.com/stops/17018,True
547,17019,17019,Northbound Wall at Portage,49.88439651489818,-97.18274026694816,https://winnipegtransit.com/stops/17019,False
548,17020,17020,Westbound Broadway at Portage,49.886745073325734,-97.16398274292938,https://winnipegtransit.com/stops/17020,True
549,20001,20001,Southbound St James at Ness South,49.88208430536042,-97.20171731100548,https://winnipegtransit.com/stops/20001,True
550,20003,20003,Southbound St James at St. Matthews,49.89110378404099,-97.20097832022633,https://winnipegtransit.com/stops/20003,False
551,20004,20004,Southbound St James at Ellice,49.893735842486024,-97.20075512750356,https://winnipegtransit.com/stops/20004,False
552,20005,20005,Southbound St James at Sargent,49.89800338787861,-97.20042928813218,https://winnipegtransit.com/stops/20005,False
553,20006,20006,Southbound St James at Wellington,49.901506582878355,-97.20011790103916,https://winnipegtransit.com/stops/20006,False
554,20008,20008,Southbound St James at Dublin South,49.90856798355238,-97.199562563548,https://winnipegtransit.com/stops/20008,False
555,20012,20012,Westbound Notre Dame at Keewatin,49.916529611977175,-97.19558838603972,https://winnipegtransit.com/stops/20012,False
556,20013,20013,Westbound Logan at Dee,49.922765480673135,-97.19862965394805,https://winnipegtransit.com/stops/20013,False
557,20014,20014,Eastbound Logan at Dee,49.92261395507772,-97.19871889541344,https://winnipegtransit.com/stops/20014,False
558,20015,20015,Westbound Logan at Ada,49.92403241961286,-97.20259503121196,https://winnipegtransit.com/stops/20015,False
559,20016,20016,Eastbound Logan at Ada,49.92401323021231,-97.20309732005175,https://winnipegtransit.com/stops/20016,False
560,20017,20017,Southbound Berry at Wellington,49.90119269049427,-97.20946004344133,https://winnipegtransit.com/stops/20017,False
561,20019,20019,Southbound King Edward at Logan,49.92478299399237,-97.20691416656258,https://winnipegtransit.com/stops/20019,False
562,20020,20020,Northbound King Edward at Logan,49.924804787940744,-97.2065789691236,https://winnipegtransit.com/stops/20020,False
563,20023,20023,Southbound King Edward at Elgin,49.92169799742224,-97.20693110326958,https://winnipegtransit.com/stops/20023,False
564,20024,20024,Northbound King Edward at Elgin,49.92159393502978,-97.2066005975534,https://winnipegtransit.com/stops/20024,False
565,20027,20027,Southbound King Edward at Legion,49.91794710973983,-97.2069309418042,https://winnipegtransit.com/stops/20027,False
566,20028,20028,Northbound King Edward at Legion,49.91785203732981,-97.20660012797988,https://winnipegtransit.com/stops/20028,False
567,20029,20029,Westbound Notre Dame at St. James,49.916546644419824,-97.19957187198854,https://winnipegtransit.com/stops/20029,False
568,20030,20030,Eastbound Notre Dame at Becker,49.916340846916555,-97.20022033714216,https://winnipegtransit.com/stops/20030,False
569,20031,20031,Westbound Notre Dame at Tentler,49.91652741033422,-97.20238654648158,https://winnipegtransit.com/stops/20031,False
570,20032,20032,Eastbound Notre Dame at Tentler,49.91636581102285,-97.20240648650584,https://winnipegtransit.com/stops/20032,False
571,20034,20034,Northbound King Edward at Notre Dame,49.917087260299986,-97.20658671088674,https://winnipegtransit.com/stops/20034,False
572,20036,20036,Eastbound Notre Dame at King Edward,49.916353828722436,-97.20743581744262,https://winnipegtransit.com/stops/20036,False
573,20040,20040,Westbound Wellington at Canada Post,49.90181420077963,-97.21534175516894,https://winnipegtransit.com/stops/20040,False
574,20041,20041,Eastbound Wellington at Canada Post,49.90158173079488,-97.2148489917175,https://winnipegtransit.com/stops/20041,False
575,20046,20046,Westbound Dublin at Sherwin,49.91195900139884,-97.21116463767424,https://winnipegtransit.com/stops/20046,False
576,20047,20047,Eastbound Dublin at Sherwin,49.911743965320525,-97.20947324460626,https://winnipegtransit.com/stops/20047,False
577,20053,20053,Westbound Dublin at St. James,49.91153784561346,-97.19966090339744,https://winnipegtransit.com/stops/20053,False
578,20054,20054,Eastbound Dublin at Border,49.91142204055974,-97.20089096904638,https://winnipegtransit.com/stops/20054,False
579,20056,20056,Eastbound Dublin at King Edward East,49.91154560695718,-97.20421541311042,https://winnipegtransit.com/stops/20056,False
580,20057,20057,Westbound Dublin at King Edward,49.9117761107466,-97.20573905339704,https://winnipegtransit.com/stops/20057,False
581,20070,20070,Westbound Wellington at Airport Terminal,49.90533905892906,-97.22404153960866,https://winnipegtransit.com/stops/20070,False
582,20072,20072,Westbound Wellington at Airport Terminal (D13),49.90540732485795,-97.22438721374928,https://winnipegtransit.com/stops/20072,False
583,20073,20073,Eastbound Wellington at Berry West,49.90150088569726,-97.2119414128316,https://winnipegtransit.com/stops/20073,False
584,20075,20075,Eastbound Wellington at Berry,49.90141958794076,-97.20959090444744,https://winnipegtransit.com/stops/20075,False
585,20077,20077,Eastbound Wellington at King Edward,49.901356159099365,-97.2066548446609,https://winnipegtransit.com/stops/20077,False
586,20078,20078,Westbound Wellington at King Edward,49.90151732860684,-97.20660709001083,https://winnipegtransit.com/stops/20078,False
587,20086,20086,Northbound Berry at Sargent,49.89797390862108,-97.20955134735377,https://winnipegtransit.com/stops/20086,False
588,20087,20087,Southbound Berry at Sargent,49.89828235989482,-97.20972095754787,https://winnipegtransit.com/stops/20087,False
589,20088,20088,Eastbound Ellice at St. James,49.89414297738712,-97.20090707359724,https://winnipegtransit.com/stops/20088,False
590,20089,20089,Westbound Ellice at Century,49.89436158881297,-97.20282046894955,https://winnipegtransit.com/stops/20089,False
591,20090,20090,Eastbound Ellice at Century,49.8942167538919,-97.20334103955808,https://winnipegtransit.com/stops/20090,False
592,20093,20093,Westbound Ellice at King Edward,49.8945134756488,-97.20739586731162,https://winnipegtransit.com/stops/20093,False
593,20094,20094,Eastbound Ellice at King Edward,49.89436135332789,-97.20802808831009,https://winnipegtransit.com/stops/20094,False
594,20096,20096,Northbound Berry at Ellice,49.894856810224574,-97.20981988513036,https://winnipegtransit.com/stops/20096,False
595,20097,20097,Southbound Berry at Ellice,49.894671036314584,-97.21002169830048,https://winnipegtransit.com/stops/20097,False
596,20099,20099,Westbound Ellice at Marjorie,49.89466306809701,-97.21241695068814,https://winnipegtransit.com/stops/20099,False
597,20100,20100,Eastbound Ellice at Marjorie,49.89450619247831,-97.21274300240188,https://winnipegtransit.com/stops/20100,False
598,20101,20101,Westbound Ellice at Roseberry,49.8947331691784,-97.2146283063552,https://winnipegtransit.com/stops/20101,False
599,20102,20102,Eastbound Ellice at Roseberry,49.89457907631914,-97.21513526247696,https://winnipegtransit.com/stops/20102,False
600,20104,20104,Northbound Ferry at Ellice,49.89411059108384,-97.21742216031156,https://winnipegtransit.com/stops/20104,False
601,20106,20106,Southbound Ferry at Ellice,49.89407763108153,-97.21761831074168,https://winnipegtransit.com/stops/20106,False
602,20107,20107,Southbound Ferry at St. Matthews,49.89149047950942,-97.21783893314723,https://winnipegtransit.com/stops/20107,False
603,20108,20108,Northbound Ferry at St. Matthews,49.890867180125554,-97.2176669694265,https://winnipegtransit.com/stops/20108,False
604,20109,20109,Westbound Sargent at Ferry East,49.89835244909535,-97.21484284909782,https://winnipegtransit.com/stops/20109,False
605,20110,20110,Westbound Sargent at Flight,49.89846233659139,-97.21847328607367,https://winnipegtransit.com/stops/20110,False
606,20111,20111,Westbound Silver at Ferry,49.88802574032938,-97.217729868502,https://winnipegtransit.com/stops/20111,False
607,20112,20112,Eastbound Silver at Ferry,49.88788746492085,-97.21751220623582,https://winnipegtransit.com/stops/20112,False
608,20114,20114,Westbound Silver at Roseberry,49.88793579189147,-97.21539424731408,https://winnipegtransit.com/stops/20114,False
609,20115,20115,Eastbound Silver at Parkview,49.88772401865452,-97.21332765450006,https://winnipegtransit.com/stops/20115,False
610,20117,20117,Eastbound Silver at Berry,49.88764297125998,-97.21099172599745,https://winnipegtransit.com/stops/20117,False
611,20118,20118,Northbound Berry at Silver,49.88745543314623,-97.2104974641675,https://winnipegtransit.com/stops/20118,False
612,20119,20119,Southbound Berry at Ness,49.88406308102816,-97.21099877921534,https://winnipegtransit.com/stops/20119,False
613,20120,20120,Southbound Berry at Portage,49.878978698113904,-97.21143726263831,https://winnipegtransit.com/stops/20120,False
614,20122,20122,Southbound Flight at Sargent,49.89863464503364,-97.21914927960964,https://winnipegtransit.com/stops/20122,False
615,20123,20123,Eastbound Sargent at Ferry East,49.898182715071385,-97.214918739287,https://winnipegtransit.com/stops/20123,False
616,20124,20124,Westbound Ness at Madison,49.88360037475074,-97.20319228629702,https://winnipegtransit.com/stops/20124,False
617,20125,20125,Westbound Ness at Queen,49.88378862602199,-97.2077931639564,https://winnipegtransit.com/stops/20125,False
618,20127,20127,Westbound Ness at Berry,49.88392393313781,-97.21072550151958,https://winnipegtransit.com/stops/20127,False
619,20129,20129,Westbound Ness at Parkview,49.88409197481843,-97.21520189115472,https://winnipegtransit.com/stops/20129,False
620,20132,20132,Westbound Ness at Sackville,49.88439034464458,-97.22290323412832,https://winnipegtransit.com/stops/20132,False
621,20134,20134,Westbound Ness at Winchester,49.884622243375546,-97.22864419963037,https://winnipegtransit.com/stops/20134,False
622,20136,20136,Westbound Ness at Woodlawn,49.88482009667864,-97.23394097735964,https://winnipegtransit.com/stops/20136,False
623,20137,20137,Westbound Ness at Air Force,49.88495316626988,-97.2373607718701,https://winnipegtransit.com/stops/20137,False
624,20139,20139,Westbound Ness at Mount Royal,49.88525406808085,-97.24532678776644,https://winnipegtransit.com/stops/20139,False
625,20140,20140,Westbound Ness at Strathmillan,49.885382230385595,-97.24903916871172,https://winnipegtransit.com/stops/20140,False
626,20141,20141,Westbound Ness at Whytewold,49.88559796928926,-97.2543911438539,https://winnipegtransit.com/stops/20141,False
627,20143,20143,Westbound Ness at Braintree,49.88583813227353,-97.26018777593175,https://winnipegtransit.com/stops/20143,False
628,20144,20144,Eastbound Sargent at Berry,49.89802402239848,-97.20988369575991,https://winnipegtransit.com/stops/20144,False
629,20146,20146,Northbound Saulteaux at Saulteaux A,49.89617984732952,-97.26062347982143,https://winnipegtransit.com/stops/20146,False
630,20147,20147,Eastbound Wellington at Flight,49.90099448096332,-97.21993972657808,https://winnipegtransit.com/stops/20147,False
631,20148,20148,Northbound Saulteaux at Saulteaux D,49.89828310319789,-97.26051999867468,https://winnipegtransit.com/stops/20148,False
632,20152,20152,Westbound Murray Park at Saulteaux,49.89475761577772,-97.26595186259746,https://winnipegtransit.com/stops/20152,False
633,20156,20156,Westbound Ness at Moray,49.88594472413079,-97.26309355737092,https://winnipegtransit.com/stops/20156,False
634,20157,20157,Westbound Ness at Wallasey,49.88602033996477,-97.2651373207604,https://winnipegtransit.com/stops/20157,False
635,20158,20158,Westbound Ness at Harcourt,49.88656765251899,-97.26925246440402,https://winnipegtransit.com/stops/20158,False
636,20159,20159,Westbound Ness at Prairie View,49.88748811182673,-97.27246337512396,https://winnipegtransit.com/stops/20159,False
637,20160,20160,Westbound Ness at Sturgeon,49.88800866030761,-97.2790299785938,https://winnipegtransit.com/stops/20160,False
638,20162,20162,Westbound Ness at Heritage,49.88812704711366,-97.28336949449334,https://winnipegtransit.com/stops/20162,False
639,20163,20163,Westbound Ness at Valley View,49.88823326368663,-97.28628939380832,https://winnipegtransit.com/stops/20163,False
640,20164,20164,Westbound Ness at School,49.88814012481593,-97.28850632157352,https://winnipegtransit.com/stops/20164,False
641,20165,20165,Westbound Ness at Vimy,49.888197359080735,-97.29116343921146,https://winnipegtransit.com/stops/20165,False
642,20167,20167,Westbound Ness at Muriel,49.88861814712532,-97.29713517872644,https://winnipegtransit.com/stops/20167,False
643,20168,20168,Eastbound Ness at Muriel,49.88837578588767,-97.29594639416082,https://winnipegtransit.com/stops/20168,False
644,20170,20170,Eastbound Ness at Vimy,49.88808541431328,-97.2915015247472,https://winnipegtransit.com/stops/20170,False
645,20171,20171,Eastbound Ness at School,49.888022223726466,-97.28844088091192,https://winnipegtransit.com/stops/20171,False
646,20172,20172,Eastbound Ness at Kirby,49.88808687527718,-97.2855149360398,https://winnipegtransit.com/stops/20172,False
647,20173,20173,Eastbound Ness at Pebblewood,49.887954195540374,-97.28202517817424,https://winnipegtransit.com/stops/20173,False
648,20174,20174,Eastbound Ness at Sturgeon,49.8878443554658,-97.2788687567326,https://winnipegtransit.com/stops/20174,False
649,20175,20175,Eastbound Ness at Prairie View,49.88721300956623,-97.27211122578566,https://winnipegtransit.com/stops/20175,False
650,20176,20176,Eastbound Ness at Harcourt,49.88652998058015,-97.26974107321148,https://winnipegtransit.com/stops/20176,False
651,20177,20177,Eastbound Ness at Wallasey,49.88583219729329,-97.26458720332523,https://winnipegtransit.com/stops/20177,False
652,20178,20178,Eastbound Ness at Moray,49.88574403194808,-97.26230723306554,https://winnipegtransit.com/stops/20178,False
653,20179,20179,Eastbound Ness at Braintree,49.88562215439311,-97.25898436979202,https://winnipegtransit.com/stops/20179,False
654,20181,20181,Eastbound Ness at Whytewold,49.885421493791874,-97.2540216303748,https://winnipegtransit.com/stops/20181,False
655,20182,20182,Eastbound Ness at Strathmillan,49.88518959117144,-97.2481969336982,https://winnipegtransit.com/stops/20182,False
656,20183,20183,Eastbound Ness at Mount Royal,49.88505009121179,-97.24433184578288,https://winnipegtransit.com/stops/20183,False
657,20185,20185,Eastbound Ness at Sharp,49.88480690260975,-97.237797659579,https://winnipegtransit.com/stops/20185,False
658,20186,20186,Eastbound Ness at Woodlawn,49.88462925908342,-97.2332240365417,https://winnipegtransit.com/stops/20186,False
659,20188,20188,Eastbound Ness at Winchester,49.88446446902127,-97.2289144777073,https://winnipegtransit.com/stops/20188,False
660,20190,20190,Eastbound Ness at Sackville,49.8842144105472,-97.22257558712369,https://winnipegtransit.com/stops/20190,False
661,20192,20192,Eastbound Ness at Ferry,49.88406356634171,-97.21861361153472,https://winnipegtransit.com/stops/20192,False
662,20193,20193,Eastbound Ness at Roseberry,49.88396207545784,-97.21611155244136,https://winnipegtransit.com/stops/20193,False
663,20195,20195,Eastbound Ness at Berry,49.88377841592878,-97.21120419699967,https://winnipegtransit.com/stops/20195,False
664,20196,20196,Northbound Berry at Ness,49.88361999878579,-97.21084810669632,https://winnipegtransit.com/stops/20196,False
665,20197,20197,Eastbound Ness at Queen,49.883625301456334,-97.2077017653898,https://winnipegtransit.com/stops/20197,False
666,20198,20198,Eastbound Ness at Kensington,49.88344993052492,-97.20509112160994,https://winnipegtransit.com/stops/20198,False
667,20200,20200,Westbound Portage at Century,49.87992577955563,-97.20405254021924,https://winnipegtransit.com/stops/20200,False
668,20201,20201,Westbound Portage at Queen,49.87928725050996,-97.20754225127772,https://winnipegtransit.com/stops/20201,False
669,20205,20205,Westbound Portage at Berry,49.87897547397481,-97.21122858693504,https://winnipegtransit.com/stops/20205,True
670,20206,20206,Westbound Portage at Marjorie,49.878844857501655,-97.21442100615526,https://winnipegtransit.com/stops/20206,False
671,20208,20208,Westbound Portage at Inglewood,49.87873577408425,-97.21960311383934,https://winnipegtransit.com/stops/20208,True
672,20209,20209,Westbound Portage at Amherst,49.8786785727551,-97.22231953166568,https://winnipegtransit.com/stops/20209,False
673,20211,20211,Westbound Portage at Linwood,49.878232415533894,-97.22783408977534,https://winnipegtransit.com/stops/20211,False
674,20212,20212,Westbound Portage at Overdale (Assiniboine Park),49.87741363872747,-97.23075925603496,https://winnipegtransit.com/stops/20212,True
675,20214,20214,Westbound Portage at Woodlawn,49.87732273373179,-97.23541157547707,https://winnipegtransit.com/stops/20214,False
676,20215,20215,Westbound Portage at Sharp,49.877061239572264,-97.2377316739278,https://winnipegtransit.com/stops/20215,False
677,20216,20216,Westbound Portage at Conway,49.87668736968853,-97.24094664586552,https://winnipegtransit.com/stops/20216,False
678,20218,20218,Westbound Portage at Mount Royal,49.87622451103311,-97.24541748877122,https://winnipegtransit.com/stops/20218,True
679,20220,20220,Westbound Portage at Strathmillan,49.87581677812699,-97.25116677133288,https://winnipegtransit.com/stops/20220,False
680,20221,20221,Westbound Portage at Whytewold,49.87552616932839,-97.25455949210526,https://winnipegtransit.com/stops/20221,True
681,20222,20222,Westbound Portage at Rita,49.87512884385355,-97.25863801719753,https://winnipegtransit.com/stops/20222,False
682,20225,20225,Westbound Portage at Thompson,49.87651627583698,-97.26657754655608,https://winnipegtransit.com/stops/20225,False
683,20227,20227,Westbound Portage at Woodhaven,49.87799355049165,-97.27213412267186,https://winnipegtransit.com/stops/20227,True
684,20230,20230,Westbound Portage at Sturgeon,49.87947233020556,-97.27841480569806,https://winnipegtransit.com/stops/20230,False
685,20231,20231,Westbound Portage at Country Club,49.88031881906557,-97.28332628080786,https://winnipegtransit.com/stops/20231,False
686,20232,20232,Westbound Portage at Greenway,49.88078628759561,-97.2863442788684,https://winnipegtransit.com/stops/20232,False
687,20233,20233,Westbound Portage at Banting,49.881407591562024,-97.29003898972262,https://winnipegtransit.com/stops/20233,True
688,20235,20235,Westbound Portage at Parkhill,49.88199773754506,-97.29406898258354,https://winnipegtransit.com/stops/20235,False
689,20236,20236,Westbound Portage at Muriel,49.88233290718424,-97.29606172285834,https://winnipegtransit.com/stops/20236,False
690,20237,20237,Westbound Portage at Rouge,49.88285174065331,-97.2995375422402,https://winnipegtransit.com/stops/20237,True
691,20239,20239,Eastbound Portage at Westwood,49.88150197861926,-97.29277795032618,https://winnipegtransit.com/stops/20239,False
692,20240,20240,Westbound Portage at Raquette,49.883110728329015,-97.30431717386814,https://winnipegtransit.com/stops/20240,False
693,20241,20241,Westbound Portage at Bedson,49.88284597975315,-97.30712450029768,https://winnipegtransit.com/stops/20241,True
694,20243,20243,Westbound Portage at Knox,49.88228139774521,-97.3121973832104,https://winnipegtransit.com/stops/20243,False
695,20245,20245,Eastbound Unicity at Unicity Hub,49.88416625671007,-97.31253535903248,https://winnipegtransit.com/stops/20245,True
696,20246,20246,Westbound Portage at Buchanan,49.881766984813986,-97.31640534085923,https://winnipegtransit.com/stops/20246,False
697,20247,20247,Westbound Portage at Stewart,49.88148567891877,-97.31871196624844,https://winnipegtransit.com/stops/20247,False
698,20248,20248,Eastbound Portage at St. Charles,49.8811832388334,-97.31894519454308,https://winnipegtransit.com/stops/20248,False
699,20249,20249,Eastbound Portage at Buchanan,49.88141525924236,-97.31696046432492,https://winnipegtransit.com/stops/20249,False
700,20251,20251,Eastbound Portage at David,49.882055690404584,-97.31152315389213,https://winnipegtransit.com/stops/20251,False
701,20252,20252,Eastbound Portage at Bedson,49.88250963656057,-97.3074981992486,https://winnipegtransit.com/stops/20252,True
702,20253,20253,Eastbound Portage at Seaton,49.88286167326596,-97.30389435954744,https://winnipegtransit.com/stops/20253,False
703,20254,20254,Eastbound Portage at Rouge,49.88249560270459,-97.29917420007838,https://winnipegtransit.com/stops/20254,True
704,20255,20255,Eastbound Portage at Muriel,49.882174578993336,-97.29691644554694,https://winnipegtransit.com/stops/20255,False
705,20257,20257,Eastbound Portage at Banting,49.880883789336686,-97.28867940485485,https://winnipegtransit.com/stops/20257,True
706,20259,20259,Eastbound Portage at Golf,49.88042660767944,-97.28574453432526,https://winnipegtransit.com/stops/20259,False
707,20260,20260,Eastbound Portage at Country Club,49.88002948258196,-97.28322518374556,https://winnipegtransit.com/stops/20260,False
708,20262,20262,Eastbound Portage at Sturgeon,49.87924189534008,-97.2786457160217,https://winnipegtransit.com/stops/20262,False
709,20264,20264,Eastbound Portage at Woodhaven,49.87784418188968,-97.2729746095716,https://winnipegtransit.com/stops/20264,True
710,20266,20266,Eastbound Portage at Windham,49.87614309830389,-97.26628469644238,https://winnipegtransit.com/stops/20266,False
711,20268,20268,Eastbound Portage at Moray,49.8748384414141,-97.26145998059263,https://winnipegtransit.com/stops/20268,True
712,20269,20269,Eastbound Portage at Rita,49.874926657715555,-97.2577545104132,https://winnipegtransit.com/stops/20269,False
713,20272,20272,Eastbound Portage at Whytewold,49.87521508212175,-97.25480732330718,https://winnipegtransit.com/stops/20272,True
714,20275,20275,Eastbound Portage at Mount Royal West,49.875691551251585,-97.24883296019988,https://winnipegtransit.com/stops/20275,False
715,20276,20276,Eastbound Portage at Mount Royal,49.87591302255156,-97.24563755973205,https://winnipegtransit.com/stops/20276,True
716,20277,20277,Eastbound Portage at Conway,49.87637758076632,-97.2412780370898,https://winnipegtransit.com/stops/20277,False
717,20278,20278,Eastbound Portage at Sharp,49.876711802617166,-97.23841250582608,https://winnipegtransit.com/stops/20278,False
718,20279,20279,Eastbound Portage at Woodlawn,49.87707881485054,-97.23475235139198,https://winnipegtransit.com/stops/20279,False
719,20281,20281,Eastbound Portage at Deer Lodge,49.878035959622224,-97.22734018519934,https://winnipegtransit.com/stops/20281,False
720,20283,20283,Eastbound Portage at Amherst,49.87839943914166,-97.2228865621538,https://winnipegtransit.com/stops/20283,False
721,20285,20285,Eastbound Portage at Ferry,49.87847614007003,-97.21909764219524,https://winnipegtransit.com/stops/20285,True
722,20287,20287,Eastbound Portage at Riveroaks,49.878588205761815,-97.21411032448154,https://winnipegtransit.com/stops/20287,False
723,20288,20288,Eastbound Portage at Cavell,49.878633896379405,-97.21182583156131,https://winnipegtransit.com/stops/20288,True
724,20290,20290,Eastbound Portage at Garden,49.879106533613495,-97.20690863749952,https://winnipegtransit.com/stops/20290,False
725,20291,20291,Eastbound Portage at Kintyre,49.87966823704587,-97.20368626005576,https://winnipegtransit.com/stops/20291,False
726,20293,20293,"Westbound Pearl McGonigal at Grace Hospital (220, 883, 885)",49.8817162882724,-97.2756761994599,https://winnipegtransit.com/stops/20293,False
727,20294,20294,Northbound Sturgeon at Caron,49.88461801652961,-97.2784544982216,https://winnipegtransit.com/stops/20294,False
728,20295,20295,Southbound Sturgeon at Caron,49.884253556923845,-97.27874588491136,https://winnipegtransit.com/stops/20295,False
729,20296,20296,Southbound Sturgeon at Portage North,49.88135200724553,-97.27900219833376,https://winnipegtransit.com/stops/20296,True
730,20300,20300,Northbound Sturgeon at Thornton,49.8906195111994,-97.27797643336685,https://winnipegtransit.com/stops/20300,True
731,20301,20301,Southbound Sturgeon at Thornton,49.89055131484424,-97.27822947276074,https://winnipegtransit.com/stops/20301,True
732,20304,20304,Eastbound Unicity at Unicity Terminal (70),49.88417849118031,-97.312757668831,https://winnipegtransit.com/stops/20304,False
733,20305,20305,Eastbound Unicity at Unicity Terminal (D15),49.88418680234593,-97.31332814115667,https://winnipegtransit.com/stops/20305,False
734,20306,20306,Eastbound Hamilton at Sonnichsen,49.89812185562692,-97.28772149197974,https://winnipegtransit.com/stops/20306,False
735,20307,20307,Westbound Hamilton at Sonnichsen,49.89808184344073,-97.28805710974976,https://winnipegtransit.com/stops/20307,False
736,20308,20308,Eastbound Hamilton at Apple,49.8993342958723,-97.28759501914796,https://winnipegtransit.com/stops/20308,False
737,20309,20309,Eastbound Unicity at Unicity Terminal (Route 22),49.88419113065847,-97.3130078066748,https://winnipegtransit.com/stops/20309,False
738,20311,20311,Westbound Quail Ridge at Quail East,49.89853706793642,-97.28174681119904,https://winnipegtransit.com/stops/20311,False
739,20313,20313,Westbound Quail Ridge at Quail West,49.89778852057733,-97.28525464592008,https://winnipegtransit.com/stops/20313,False
740,20314,20314,Westbound Hamilton at Valley View,49.89480309790368,-97.28835415305451,https://winnipegtransit.com/stops/20314,False
741,20315,20315,Eastbound Hamilton at Valley View,49.89484311121598,-97.28801855832565,https://winnipegtransit.com/stops/20315,False
742,20318,20318,Eastbound Hamilton at Parkhill,49.892816609318785,-97.29271288385598,https://winnipegtransit.com/stops/20318,False
743,20319,20319,Westbound Hamilton at Crestview Park,49.89303627280811,-97.29296968051705,https://winnipegtransit.com/stops/20319,False
744,20320,20320,Westbound RRC Polytech at RRC Polytech (D16),49.917507291644576,-97.2122270139654,https://winnipegtransit.com/stops/20320,False
745,20321,20321,Westbound Hamilton at Rogan,49.893162278369495,-97.29602843380782,https://winnipegtransit.com/stops/20321,False
746,20322,20322,Eastbound Hamilton at Rogan,49.89291685682124,-97.2952434346933,https://winnipegtransit.com/stops/20322,False
747,20327,20327,Westbound Hamilton at Chapman East,49.8921346495991,-97.30568564703104,https://winnipegtransit.com/stops/20327,False
748,20328,20328,Eastbound Hamilton at Chapman East,49.89186185512689,-97.30609897422237,https://winnipegtransit.com/stops/20328,False
749,20331,20331,Westbound Hamilton at Redfern,49.89138386000395,-97.31217225869764,https://winnipegtransit.com/stops/20331,False
750,20332,20332,Eastbound Hamilton at Knox,49.89124995198061,-97.31285915995144,https://winnipegtransit.com/stops/20332,False
751,20334,20334,Westbound Lumsden at Sabine,49.896119387784864,-97.3130792232715,https://winnipegtransit.com/stops/20334,False
752,20335,20335,Eastbound Lumsden at Galbraith,49.89592646320451,-97.31156819050578,https://winnipegtransit.com/stops/20335,False
753,20337,20337,Westbound Lumsden at Lake Ridge West,49.895992664016944,-97.3093240469747,https://winnipegtransit.com/stops/20337,False
754,20342,20342,Eastbound Lumsden at Cavalier,49.895734320731144,-97.30334560149124,https://winnipegtransit.com/stops/20342,False
755,20344,20344,Northbound Cavalier at Voyageur,49.89520882201595,-97.30247288225236,https://winnipegtransit.com/stops/20344,False
756,20345,20345,Southbound Cavalier at Hollingsworth,49.89403867162759,-97.30180382376874,https://winnipegtransit.com/stops/20345,False
757,20346,20346,Northbound Cavalier at Gerrond,49.89394448270686,-97.30151472917628,https://winnipegtransit.com/stops/20346,False
758,20347,20347,Southbound Cavalier at Hamilton,49.89282295366409,-97.30109462641938,https://winnipegtransit.com/stops/20347,False
759,20348,20348,Northbound Cavalier at Hamilton,49.89300092116608,-97.30096306476608,https://winnipegtransit.com/stops/20348,False
760,20349,20349,Southbound Cavalier at Morgan,49.8916482984161,-97.30073210117044,https://winnipegtransit.com/stops/20349,False
761,20350,20350,Northbound Cavalier at Hillary,49.891437437851266,-97.3004610442948,https://winnipegtransit.com/stops/20350,False
762,20353,20353,Southbound Cavalier at Ness,49.88887541808979,-97.3005649559295,https://winnipegtransit.com/stops/20353,False
763,20355,20355,Northbound Cavalier at Danbury,49.88662723949282,-97.300602145155,https://winnipegtransit.com/stops/20355,False
764,20356,20356,Southbound Cavalier at Fairlane,49.88623370984525,-97.30075518126208,https://winnipegtransit.com/stops/20356,False
765,20357,20357,Southbound Cavalier at Portage North,49.88451187190036,-97.30049545333962,https://winnipegtransit.com/stops/20357,False
766,20358,20358,Northbound Cavalier at Portage,49.88443709047396,-97.30030318387465,https://winnipegtransit.com/stops/20358,False
767,20360,20360,Southbound Westwood at Portage,49.88089884668636,-97.29335602862162,https://winnipegtransit.com/stops/20360,False
