{
"type": "FeatureCollection",
"name": "added_stops_map",
"crs": { "type": "name", "properties": { "name": "urn:ogc:def:crs:EPSG::3158" } },
"features": [
{ "type": "Feature", "properties": { "stop_code": 10153, "stop_name": "Southbound Donald at Stradbrook", "stop_lat": 49.879790561495561, "stop_lon": -97.137993503016318 }, "geometry": { "type": "Point", "coordinates": [ 633773.737341768923216, 5526926.969056055881083 ] } },
{ "type": "Feature", "properties": { "stop_code": 10166, "stop_name": "Southbound Donald at River", "stop_lat": 49.881948072602718, "stop_lon": -97.137353671592507 }, "geometry": { "type": "Point", "coordinates": [ 633813.737386493827216, 5527167.967526434920728 ] } },
{ "type": "Feature", "properties": { "stop_code": 10226, "stop_name": "Northbound Arlington at Wolseley", "stop_lat": 49.879648948841712, "stop_lon": -97.169722463066435 }, "geometry": { "type": "Point", "coordinates": [ 631494.735313123208471, 5526855.043362419120967 ] } },
{ "type": "Feature", "properties": { "stop_code": 10673, "stop_name": "Southbound Donald at Broadway", "stop_lat": 49.887808735518988, "stop_lon": -97.140455501580121 }, "geometry": { "type": "Point", "coordinates": [ 633574.737186801270582, 5527813.97499037347734 ] } },
{ "type": "Feature", "properties": { "stop_code": 10798, "stop_name": "Southbound Stafford at Grosvenor", "stop_lat": 49.870336927302098, "stop_lon": -97.16333856539012 }, "geometry": { "type": "Point", "coordinates": [ 631978.735699351062067, 5525831.028690785169601 ] } },
{ "type": "Feature", "properties": { "stop_code": 10825, "stop_name": "Southbound Polo Park at Polo Park Hub (680)", "stop_lat": 49.881630982586728, "stop_lon": -97.199172794840123 }, "geometry": { "type": "Point", "coordinates": [ 629373.733569817035459, 5527024.108962202444673 ] } },
{ "type": "Feature", "properties": { "stop_code": 10826, "stop_name": "Southbound Polo Park at Polo Park Hub (70)", "stop_lat": 49.881451403288771, "stop_lon": -97.199193397106981 }, "geometry": { "type": "Point", "coordinates": [ 629372.733568463707343, 5527004.109006654471159 ] } },
{ "type": "Feature", "properties": { "stop_code": 10903, "stop_name": "Northbound Israel Asper at William Stephenson", "stop_lat": 49.892876291555602, "stop_lon": -97.131725457688304 }, "geometry": { "type": "Point", "coordinates": [ 634187.737774661625735, 5528392.953973917290568 ] } },
{ "type": "Feature", "properties": { "stop_code": 10908, "stop_name": "Westbound Tecumseh at Tecumseh Loop", "stop_lat": 49.906433604778897, "stop_lon": -97.161619678375061 }, "geometry": { "type": "Point", "coordinates": [ 632003.735843089874834, 5529847.024832641705871 ] } },
{ "type": "Feature", "properties": { "stop_code": 10940, "stop_name": "Eastbound Ellice at Edmonton", "stop_lat": 49.894015446315073, "stop_lon": -97.148320740086021 }, "geometry": { "type": "Point", "coordinates": [ 632992.736678521032445, 5528489.993713769130409 ] } },
{ "type": "Feature", "properties": { "stop_code": 11005, "stop_name": "Westbound Ellice at Smith", "stop_lat": 49.895430202424279, "stop_lon": -97.142863886841397 }, "geometry": { "type": "Point", "coordinates": [ 633380.737035909667611, 5528656.98077071737498 ] } },
{ "type": "Feature", "properties": { "stop_code": 11060, "stop_name": "Northbound Main at Graham (Portage and Main)", "stop_lat": 49.893149616279402, "stop_lon": -97.136964189521834 }, "geometry": { "type": "Point", "coordinates": [ 633810.737423781771213, 5528413.966633713804185 ] } },
{ "type": "Feature", "properties": { "stop_code": 11100, "stop_name": "Northbound Arlington at Portage South", "stop_lat": 49.885363277479797, "stop_lon": -97.169311439457886 }, "geometry": { "type": "Point", "coordinates": [ 631508.735344101907685, 5527491.042440284974873 ] } },
{ "type": "Feature", "properties": { "stop_code": 11102, "stop_name": "Eastbound William at Furby", "stop_lat": 49.90363646398275, "stop_lon": -97.154289087624917 }, "geometry": { "type": "Point", "coordinates": [ 632537.736304269637913, 5529549.007777621969581 ] } },
{ "type": "Feature", "properties": { "stop_code": 11103, "stop_name": "Westbound William at Furby", "stop_lat": 49.903778077379165, "stop_lon": -97.154144413967558 }, "geometry": { "type": "Point", "coordinates": [ 632547.736313653294928, 5529565.007439626380801 ] } },
{ "type": "Feature", "properties": { "stop_code": 11104, "stop_name": "Eastbound Ellice at Donald", "stop_lat": 49.894923030764403, "stop_lon": -97.144331488871046 }, "geometry": { "type": "Point", "coordinates": [ 633276.736939195194282, 5528597.984262432903051 ] } },
{ "type": "Feature", "properties": { "stop_code": 11105, "stop_name": "Westbound Ellice at Donald", "stop_lat": 49.895077413491819, "stop_lon": -97.144423037271281 }, "geometry": { "type": "Point", "coordinates": [ 633269.736933363135904, 5528614.984480657614768 ] } },
{ "type": "Feature", "properties": { "stop_code": 11106, "stop_name": "Westbound Ellice at Edmonton", "stop_lat": 49.894271244898547, "stop_lon": -97.148004617661201 }, "geometry": { "type": "Point", "coordinates": [ 633014.736699269153178, 5528518.992967685684562 ] } },
{ "type": "Feature", "properties": { "stop_code": 11107, "stop_name": "Southbound Erin at Portage", "stop_lat": 49.88437221806857, "stop_lon": -97.185205239737243 }, "geometry": { "type": "Point", "coordinates": [ 630369.734384187730029, 5527353.078256789594889 ] } },
{ "type": "Feature", "properties": { "stop_code": 11108, "stop_name": "Eastbound Broadway at Portage", "stop_lat": 49.886267741744028, "stop_lon": -97.163945166909684 }, "geometry": { "type": "Point", "coordinates": [ 631891.73567743122112, 5527601.030136663466692 ] } },
{ "type": "Feature", "properties": { "stop_code": 11109, "stop_name": "Westbound Broadway at Maryland", "stop_lat": 49.885925591095763, "stop_lon": -97.161090274602557 }, "geometry": { "type": "Point", "coordinates": [ 632097.735855745151639, 5527568.023544488474727 ] } },
{ "type": "Feature", "properties": { "stop_code": 11110, "stop_name": "Northbound Tecumseh at William", "stop_lat": 49.906197143247439, "stop_lon": -97.162589669906737 }, "geometry": { "type": "Point", "coordinates": [ 631934.735782080329955, 5529819.027072176337242 ] } },
{ "type": "Feature", "properties": { "stop_code": 11111, "stop_name": "Southbound Arlington at Portage South", "stop_lat": 49.885141616859137, "stop_lon": -97.169514725887765 }, "geometry": { "type": "Point", "coordinates": [ 631494.735331375384703, 5527466.042903730645776 ] } },
{ "type": "Feature", "properties": { "stop_code": 11112, "stop_name": "Northbound Arlington at Westminster", "stop_lat": 49.881787383186719, "stop_lon": -97.169571990759962 }, "geometry": { "type": "Point", "coordinates": [ 631499.735324506182224, 5527093.043025016784668 ] } },
{ "type": "Feature", "properties": { "stop_code": 11113, "stop_name": "Northbound Arlington at Portage North", "stop_lat": 49.886073018179388, "stop_lon": -97.169256745102842 }, "geometry": { "type": "Point", "coordinates": [ 631510.735348176443949, 5527570.042317404411733 ] } },
{ "type": "Feature", "properties": { "stop_code": 11114, "stop_name": "Northbound Arlington at St. Paul", "stop_lat": 49.888094364016034, "stop_lon": -97.16909673267584 }, "geometry": { "type": "Point", "coordinates": [ 631516.735360045917332, 5527795.041957704350352 ] } },
{ "type": "Feature", "properties": { "stop_code": 11115, "stop_name": "Southbound Arlington at Westminster", "stop_lat": 49.881413117887249, "stop_lon": -97.169794951873683 }, "geometry": { "type": "Point", "coordinates": [ 631484.735310427146032, 5527051.043532751500607 ] } },
{ "type": "Feature", "properties": { "stop_code": 11116, "stop_name": "Southbound Arlington at Wolseley", "stop_lat": 49.879544372285018, "stop_lon": -97.169935215735123 }, "geometry": { "type": "Point", "coordinates": [ 631479.73529994324781, 5526843.04384751804173 ] } },
{ "type": "Feature", "properties": { "stop_code": 11117, "stop_name": "Northbound Waterfront at Lombard", "stop_lat": 49.89554208281244, "stop_lon": -97.133042802658437 }, "geometry": { "type": "Point", "coordinates": [ 634085.737688650842756, 5528686.957178107462823 ] } },
{ "type": "Feature", "properties": { "stop_code": 11118, "stop_name": "Northbound Waterfront at James", "stop_lat": 49.898679393023251, "stop_lon": -97.132921707066686 }, "geometry": { "type": "Point", "coordinates": [ 634085.73769998527132, 5529035.956897787749767 ] } },
{ "type": "Feature", "properties": { "stop_code": 11119, "stop_name": "Northbound Waterfront at George", "stop_lat": 49.900844728213251, "stop_lon": -97.128869188609983 }, "geometry": { "type": "Point", "coordinates": [ 634370.737976111005992, 5529283.947061062790453 ] } },
{ "type": "Feature", "properties": { "stop_code": 11120, "stop_name": "Southbound Waterfront at George", "stop_lat": 49.9006836048652, "stop_lon": -97.130031281567753 }, "geometry": { "type": "Point", "coordinates": [ 634287.737897124141455, 5529263.949890256859362 ] } },
{ "type": "Feature", "properties": { "stop_code": 11121, "stop_name": "Southbound Waterfront at James", "stop_lat": 49.898201369909017, "stop_lon": -97.133399694199838 }, "geometry": { "type": "Point", "coordinates": [ 634052.737667367095128, 5528981.958052917383611 ] } },
{ "type": "Feature", "properties": { "stop_code": 11122, "stop_name": "Southbound Waterfront at Lombard", "stop_lat": 49.895509266891018, "stop_lon": -97.133239012477446 }, "geometry": { "type": "Point", "coordinates": [ 634071.737675425712951, 5528682.957652987912297 ] } },
{ "type": "Feature", "properties": { "stop_code": 11123, "stop_name": "Westbound Maroons at Empress", "stop_lat": 49.88787357735962, "stop_lon": -97.196866062165043 }, "geometry": { "type": "Point", "coordinates": [ 629522.733708038111217, 5527722.103951063938439 ] } },
{ "type": "Feature", "properties": { "stop_code": 11124, "stop_name": "Westbound Maroons at St. James", "stop_lat": 49.887999837769001, "stop_lon": -97.200355846846165 }, "geometry": { "type": "Point", "coordinates": [ 629271.733508641598746, 5527730.111542236991227 ] } },
{ "type": "Feature", "properties": { "stop_code": 11125, "stop_name": "Eastbound Morley at Daly", "stop_lat": 49.863003180654118, "stop_lon": -97.140628896326319 }, "geometry": { "type": "Point", "coordinates": [ 633630.737150273402222, 5525055.975310871377587 ] } },
{ "type": "Feature", "properties": { "stop_code": 11126, "stop_name": "Eastbound William at Arlington", "stop_lat": 49.907109308251037, "stop_lon": -97.165089871650807 }, "geometry": { "type": "Point", "coordinates": [ 631752.735627018613741, 5529916.032832971774042 ] } },
{ "type": "Feature", "properties": { "stop_code": 11127, "stop_name": "Northbound Wall at Wolever", "stop_lat": 49.887361367371312, "stop_lon": -97.182517544165663 }, "geometry": { "type": "Point", "coordinates": [ 630554.734546644613147, 5527690.07227245811373 ] } },
{ "type": "Feature", "properties": { "stop_code": 11128, "stop_name": "Northbound Wall at St. Matthews", "stop_lat": 49.89064962793767, "stop_lon": -97.182268715782996 }, "geometry": { "type": "Point", "coordinates": [ 630563.734564730199054, 5528056.071724296547472 ] } },
{ "type": "Feature", "properties": { "stop_code": 11129, "stop_name": "Northbound Wall at Ellice", "stop_lat": 49.893829791117447, "stop_lon": -97.182009985812115 }, "geometry": { "type": "Point", "coordinates": [ 630573.734583308338188, 5528410.071153581142426 ] } },
{ "type": "Feature", "properties": { "stop_code": 11130, "stop_name": "Northbound Wall at Sargent", "stop_lat": 49.89743246636926, "stop_lon": -97.181735333959907 }, "geometry": { "type": "Point", "coordinates": [ 630583.734603266348131, 5528811.070548102259636 ] } },
{ "type": "Feature", "properties": { "stop_code": 11131, "stop_name": "Northbound Wall at Wellington", "stop_lat": 49.900855345030095, "stop_lon": -97.181467394388122 }, "geometry": { "type": "Point", "coordinates": [ 630593.734622658928856, 5529192.069957011379302 ] } },
{ "type": "Feature", "properties": { "stop_code": 11132, "stop_name": "Northbound Wall at Richard", "stop_lat": 49.904089656488885, "stop_lon": -97.181220429333123 }, "geometry": { "type": "Point", "coordinates": [ 630602.734640624956228, 5529552.069412222132087 ] } },
{ "type": "Feature", "properties": { "stop_code": 11133, "stop_name": "Northbound Wall at Notre Dame", "stop_lat": 49.906677147506358, "stop_lon": -97.181025613240081 }, "geometry": { "type": "Point", "coordinates": [ 630609.734654841478914, 5529840.068982447497547 ] } },
{ "type": "Feature", "properties": { "stop_code": 11134, "stop_name": "Southbound Erin at Richard", "stop_lat": 49.9043890316062, "stop_lon": -97.183674250816694 }, "geometry": { "type": "Point", "coordinates": [ 630425.734494768665172, 5529581.074894181452692 ] } },
{ "type": "Feature", "properties": { "stop_code": 11135, "stop_name": "Southbound Erin at Wellington", "stop_lat": 49.900552623020062, "stop_lon": -97.183957588034801 }, "geometry": { "type": "Point", "coordinates": [ 630415.734474142431282, 5529154.075516631826758 ] } },
{ "type": "Feature", "properties": { "stop_code": 11136, "stop_name": "Southbound Erin at Sargent", "stop_lat": 49.897120746743312, "stop_lon": -97.184225686736141 }, "geometry": { "type": "Point", "coordinates": [ 630405.73445483262185, 5528772.07610588427633 ] } },
{ "type": "Feature", "properties": { "stop_code": 11137, "stop_name": "Southbound Erin at Ellice", "stop_lat": 49.893509291824202, "stop_lon": -97.184514403926997 }, "geometry": { "type": "Point", "coordinates": [ 630394.73443413793575, 5528370.07674044277519 ] } },
{ "type": "Feature", "properties": { "stop_code": 11138, "stop_name": "Southbound Erin at St. Matthews", "stop_lat": 49.890185722155728, "stop_lon": -97.184806192996561 }, "geometry": { "type": "Point", "coordinates": [ 630382.734413560247049, 5528000.077382285147905 ] } },
{ "type": "Feature", "properties": { "stop_code": 11139, "stop_name": "Eastbound Rathgar at Lilac", "stop_lat": 49.857139683385803, "stop_lon": -97.146878512220539 }, "geometry": { "type": "Point", "coordinates": [ 633197.736734970007092, 5524392.990170585922897 ] } },
{ "type": "Feature", "properties": { "stop_code": 11140, "stop_name": "Eastbound Rathgar at Cockburn", "stop_lat": 49.858557207123177, "stop_lon": -97.14271968777534 }, "geometry": { "type": "Point", "coordinates": [ 633492.737008131924085, 5524557.980289395898581 ] } },
{ "type": "Feature", "properties": { "stop_code": 11141, "stop_name": "Westbound Beresford at Lilac", "stop_lat": 49.85647431616615, "stop_lon": -97.146333522329883 }, "geometry": { "type": "Point", "coordinates": [ 633238.736769753624685, 5524319.988876434974372 ] } },
{ "type": "Feature", "properties": { "stop_code": 11142, "stop_name": "Eastbound Higgins at Waterfront", "stop_lat": 49.903505080882198, "stop_lon": -97.126510108466519 }, "geometry": { "type": "Point", "coordinates": [ 634532.738139516091906, 5529583.941311686299741 ] } },
{ "type": "Feature", "properties": { "stop_code": 11144, "stop_name": "Westbound Notre Dame at Arlington", "stop_lat": 49.904454795245137, "stop_lon": -97.168435599987404 }, "geometry": { "type": "Point", "coordinates": [ 631519.735417139600031, 5529615.040493806824088 ] } },
{ "type": "Feature", "properties": { "stop_code": 11145, "stop_name": "Southbound Princess at William (RRC Polytech)", "stop_lat": 49.899332194106407, "stop_lon": -97.141627868370847 }, "geometry": { "type": "Point", "coordinates": [ 633458.737121145473793, 5529092.97783681191504 ] } },
{ "type": "Feature", "properties": { "stop_code": 11146, "stop_name": "Northbound Stafford at Grant", "stop_lat": 49.862460245611786, "stop_lon": -97.156735469358523 }, "geometry": { "type": "Point", "coordinates": [ 632474.736107154865749, 5524967.01335524301976 ] } },
{ "type": "Feature", "properties": { "stop_code": 11147, "stop_name": "Northbound Stafford at Grosvenor", "stop_lat": 49.870723922505256, "stop_lon": -97.163351719488006 }, "geometry": { "type": "Point", "coordinates": [ 631976.735698913224041, 5525874.028722277842462 ] } },
{ "type": "Feature", "properties": { "stop_code": 11148, "stop_name": "Eastbound Notre Dame at Erin", "stop_lat": 49.909008192622323, "stop_lon": -97.18340323636032 }, "geometry": { "type": "Point", "coordinates": [ 630432.734515458811074, 5530095.07430087402463 ] } },
{ "type": "Feature", "properties": { "stop_code": 11149, "stop_name": "Eastbound Grosvenor at Stafford", "stop_lat": 49.870501770732467, "stop_lon": -97.162956545498801 }, "geometry": { "type": "Point", "coordinates": [ 632005.73572338046506, 5525850.027810004539788 ] } },
{ "type": "Feature", "properties": { "stop_code": 11150, "stop_name": "Eastbound Logan at Keewatin", "stop_lat": 49.921535577828507, "stop_lon": -97.195317899899393 }, "geometry": { "type": "Point", "coordinates": [ 629543.733830369776115, 5531467.100636036135256 ] } },
{ "type": "Feature", "properties": { "stop_code": 11151, "stop_name": "Northbound St James at Sargent", "stop_lat": 49.898178856525291, "stop_lon": -97.200144255921643 }, "geometry": { "type": "Point", "coordinates": [ 629259.733530706260353, 5528862.111101626418531 ] } },
{ "type": "Feature", "properties": { "stop_code": 11152, "stop_name": "Northbound Tecumseh at Notre Dame", "stop_lat": 49.903548717855024, "stop_lon": -97.164612195695483 }, "geometry": { "type": "Point", "coordinates": [ 631796.735653174924664, 5529521.031723976135254 ] } },
{ "type": "Feature", "properties": { "stop_code": 11153, "stop_name": "Westbound Morley at Osborne", "stop_lat": 49.865094544332031, "stop_lon": -97.134759639281796 }, "geometry": { "type": "Point", "coordinates": [ 634046.737542562186718, 5525298.961206926964223 ] } },
{ "type": "Feature", "properties": { "stop_code": 11154, "stop_name": "Eastbound Morley at Osborne", "stop_lat": 49.864993866969186, "stop_lon": -97.134652191257473 }, "geometry": { "type": "Point", "coordinates": [ 634054.737549653626047, 5525287.960946934297681 ] } },
{ "type": "Feature", "properties": { "stop_code": 17001, "stop_name": "Eastbound Webb at Vaughan", "stop_lat": 49.89271772191654, "stop_lon": -97.151545013380343 }, "geometry": { "type": "Point", "coordinates": [ 632764.736469103372656, 5528340.001306416466832 ] } },
{ "type": "Feature", "properties": { "stop_code": 17003, "stop_name": "Westbound Station at Jubilee Station", "stop_lat": 49.855678249246637, "stop_lon": -97.149424853879481 }, "geometry": { "type": "Point", "coordinates": [ 633018.736568477703258, 5524225.996185954660177 ] } },
{ "type": "Feature", "properties": { "stop_code": 17005, "stop_name": "Southbound Wolever at Erin", "stop_lat": 49.886906007361858, "stop_lon": -97.185026681076977 }, "geometry": { "type": "Point", "coordinates": [ 630375.734397260821424, 5527635.077865371480584 ] } },
{ "type": "Feature", "properties": { "stop_code": 17006, "stop_name": "Westbound Broadway at Portage", "stop_lat": 49.886635489682625, "stop_lon": -97.164446324332559 }, "geometry": { "type": "Point", "coordinates": [ 631854.735646566958167, 5527641.031291621737182 ] } },
{ "type": "Feature", "properties": { "stop_code": 17007, "stop_name": "Westbound Graham at Graham (Portage & Main)", "stop_lat": 49.893147048054878, "stop_lon": -97.138481986309714 }, "geometry": { "type": "Point", "coordinates": [ 633701.737322865868919, 5528410.970281342975795 ] } },
{ "type": "Feature", "properties": { "stop_code": 17008, "stop_name": "Eastbound Corydon at Osborne", "stop_lat": 49.874468440485373, "stop_lon": -97.142095387892482 }, "geometry": { "type": "Point", "coordinates": [ 633493.737065221299417, 5526327.978859037160873 ] } },
{ "type": "Feature", "properties": { "stop_code": 17009, "stop_name": "Northbound Donald at Stradbrook", "stop_lat": 49.880466376163021, "stop_lon": -97.137508137084041 }, "geometry": { "type": "Point", "coordinates": [ 633806.737374716438353, 5527002.96789207495749 ] } },
{ "type": "Feature", "properties": { "stop_code": 17010, "stop_name": "Northbound Donald at River", "stop_lat": 49.8824712869189, "stop_lon": -97.136888069800378 }, "geometry": { "type": "Point", "coordinates": [ 633845.737418024335057, 5527226.966408274136484 ] } },
{ "type": "Feature", "properties": { "stop_code": 17011, "stop_name": "Northbound McPhillips at William", "stop_lat": 49.908909617961825, "stop_lon": -97.170857522320119 }, "geometry": { "type": "Point", "coordinates": [ 631333.735272660618648, 5530106.046031426638365 ] } },
{ "type": "Feature", "properties": { "stop_code": 17012, "stop_name": "Southbound McPhillips at William", "stop_lat": 49.909005890765954, "stop_lon": -97.171257802593601 }, "geometry": { "type": "Point", "coordinates": [ 631304.73524822620675, 5530116.046942682005465 ] } },
{ "type": "Feature", "properties": { "stop_code": 17013, "stop_name": "Eastbound Cumberland at Carlton", "stop_lat": 49.896894760073366, "stop_lon": -97.148377618460714 }, "geometry": { "type": "Point", "coordinates": [ 632980.736677743727341, 5528809.993858388625085 ] } },
{ "type": "Feature", "properties": { "stop_code": 17015, "stop_name": "Northbound Colony at Portage North", "stop_lat": 49.891430542141904, "stop_lon": -97.150925873448557 }, "geometry": { "type": "Point", "coordinates": [ 632812.736507639987394, 5528197.999846173450351 ] } },
{ "type": "Feature", "properties": { "stop_code": 17016, "stop_name": "Southbound Balmoral at Ellice", "stop_lat": 49.893371527846263, "stop_lon": -97.152494703479036 }, "geometry": { "type": "Point", "coordinates": [ 632694.7364087770693, 5528411.003538807854056 ] } },
{ "type": "Feature", "properties": { "stop_code": 17018, "stop_name": "Southbound Memorial at Portage", "stop_lat": 49.890074999969279, "stop_lon": -97.150532145944524 }, "geometry": { "type": "Point", "coordinates": [ 632844.736531636328436, 5528047.99891491048038 ] } },
{ "type": "Feature", "properties": { "stop_code": 17019, "stop_name": "Northbound Wall at Portage", "stop_lat": 49.884396514898178, "stop_lon": -97.182740266948159 }, "geometry": { "type": "Point", "coordinates": [ 630546.734530447865836, 5527360.07276292424649 ] } },
{ "type": "Feature", "properties": { "stop_code": 17020, "stop_name": "Westbound Broadway at Portage", "stop_lat": 49.886745073325734, "stop_lon": -97.163982742929377 }, "geometry": { "type": "Point", "coordinates": [ 631887.735675565199926, 5527654.030224644578993 ] } },
{ "type": "Feature", "properties": { "stop_code": 21001, "stop_name": "Westbound Ness at Ferry", "stop_lat": 49.884209328610346, "stop_lon": -97.218148847963434 }, "geometry": { "type": "Point", "coordinates": [ 628003.732514900853857, 5527278.149559400975704 ] } },
{ "type": "Feature", "properties": { "stop_code": 21002, "stop_name": "Southbound Sherwin at Stevenson", "stop_lat": 49.913779671481215, "stop_lon": -97.211403721220364 }, "geometry": { "type": "Point", "coordinates": [ 628409.7329138496425, 5530577.135321268811822 ] } },
{ "type": "Feature", "properties": { "stop_code": 21003, "stop_name": "Southbound Sherwin at Dublin", "stop_lat": 49.910455166106281, "stop_lon": -97.211638139829304 }, "geometry": { "type": "Point", "coordinates": [ 628401.732897618785501, 5530207.135815220884979 ] } },
{ "type": "Feature", "properties": { "stop_code": 21004, "stop_name": "Southbound Sherwin at Saskatchewan", "stop_lat": 49.906501371459029, "stop_lon": -97.211895790593218 }, "geometry": { "type": "Point", "coordinates": [ 628393.732879497576505, 5529767.136357537470758 ] } },
{ "type": "Feature", "properties": { "stop_code": 21005, "stop_name": "Southbound Berry at Saskatchewan", "stop_lat": 49.905171728385518, "stop_lon": -97.20908988077332 }, "geometry": { "type": "Point", "coordinates": [ 628598.733033842407167, 5529624.130373816005886 ] } },
{ "type": "Feature", "properties": { "stop_code": 21006, "stop_name": "Northbound Berry at Saskatchewan", "stop_lat": 49.905213663080467, "stop_lon": -97.208893346739643 }, "geometry": { "type": "Point", "coordinates": [ 628612.73304482572712, 5529629.129953843541443 ] } },
{ "type": "Feature", "properties": { "stop_code": 21007, "stop_name": "Northbound Sherwin at Saskatchewan", "stop_lat": 49.90652597621591, "stop_lon": -97.211741677277615 }, "geometry": { "type": "Point", "coordinates": [ 628404.732888042461127, 5529770.13602976128459 ] } },
{ "type": "Feature", "properties": { "stop_code": 21008, "stop_name": "Northbound Sherwin at Dublin", "stop_lat": 49.910515514544549, "stop_lon": -97.211468762743436 }, "geometry": { "type": "Point", "coordinates": [ 628413.732907049241476, 5530214.13545489218086 ] } },
{ "type": "Feature", "properties": { "stop_code": 21009, "stop_name": "Eastbound Murray Park at Saulteaux", "stop_lat": 49.894663902882257, "stop_lon": -97.266902060557115 }, "geometry": { "type": "Point", "coordinates": [ 624474.730036482214928, 5528358.248056665062904 ] } },
{ "type": "Feature", "properties": { "stop_code": 21010, "stop_name": "Eastbound Saskatchewan at Wihuri", "stop_lat": 49.903278252395808, "stop_lon": -97.251162713225838 }, "geometry": { "type": "Point", "coordinates": [ 625582.730813272530213, 5529342.217157443985343 ] } },
{ "type": "Feature", "properties": { "stop_code": 21011, "stop_name": "Southbound Saulteaux at Moray", "stop_lat": 49.898158496818255, "stop_lon": -97.260608030396284 }, "geometry": { "type": "Point", "coordinates": [ 624917.730343247298151, 5528757.235799903050065 ] } },
{ "type": "Feature", "properties": { "stop_code": 21012, "stop_name": "Southbound Saulteaux at Moray East", "stop_lat": 49.897513479185463, "stop_lon": -97.257790538756041 }, "geometry": { "type": "Point", "coordinates": [ 625121.730480138561688, 5528690.230270266532898 ] } },
{ "type": "Feature", "properties": { "stop_code": 21013, "stop_name": "Southbound Saulteaux at Moray", "stop_lat": 49.896307380620975, "stop_lon": -97.260730290765238 }, "geometry": { "type": "Point", "coordinates": [ 624913.730335534899496, 5528551.236039347015321 ] } },
{ "type": "Feature", "properties": { "stop_code": 21014, "stop_name": "Westbound Portage at Moray", "stop_lat": 49.875883533301973, "stop_lon": -97.263969570042363 }, "geometry": { "type": "Point", "coordinates": [ 624733.730159326456487, 5526275.242365847341716 ] } },
{ "type": "Feature", "properties": { "stop_code": 21016, "stop_name": "Westbound Wellington at Berry", "stop_lat": 49.90163340619489, "stop_lon": -97.209457653352743 }, "geometry": { "type": "Point", "coordinates": [ 628581.733009905321524, 5529230.131154074333608 ] } },
{ "type": "Feature", "properties": { "stop_code": 21017, "stop_name": "Eastbound Sargent at St. James", "stop_lat": 49.897695042231028, "stop_lon": -97.199688806617715 }, "geometry": { "type": "Point", "coordinates": [ 629293.733556184568442, 5528809.110112356022 ] } },
{ "type": "Feature", "properties": { "stop_code": 21018, "stop_name": "Westbound Wellington at St. James", "stop_lat": 49.901352122577123, "stop_lon": -97.200597137159122 }, "geometry": { "type": "Point", "coordinates": [ 629218.733508052653633, 5529214.112089404836297 ] } },
{ "type": "Feature", "properties": { "stop_code": 21019, "stop_name": "Northbound Cavalier at Ness", "stop_lat": 49.888890539261439, "stop_lon": -97.300369511309924 }, "geometry": { "type": "Point", "coordinates": [ 622085.728502423153259, 5527661.311027344316244 ] } },
{ "type": "Feature", "properties": { "stop_code": 21020, "stop_name": "Westbound Notre Dame at King Edward", "stop_lat": 49.916563395230149, "stop_lon": -97.207609142248685 }, "geometry": { "type": "Point", "coordinates": [ 628674.733127623796463, 5530893.127223868854344 ] } },
{ "type": "Feature", "properties": { "stop_code": 21021, "stop_name": "Westbound Logan at Keewatin", "stop_lat": 49.921601418639263, "stop_lon": -97.194925346526162 }, "geometry": { "type": "Point", "coordinates": [ 629571.733853083103895, 5531475.099777748808265 ] } },
{ "type": "Feature", "properties": { "stop_code": 21022, "stop_name": "Eastbound Notre Dame at Sherwin", "stop_lat": 49.916342793949426, "stop_lon": -97.21079345825332 }, "geometry": { "type": "Point", "coordinates": [ 628446.732950166217051, 5530863.134025601670146 ] } },
{ "type": "Feature", "properties": { "stop_code": 21023, "stop_name": "Eastbound Notre Dame at St. James", "stop_lat": 49.916338910446989, "stop_lon": -97.197782583317064 }, "geometry": { "type": "Point", "coordinates": [ 629380.733683542115614, 5530885.106002922169864 ] } },
{ "type": "Feature", "properties": { "stop_code": 21024, "stop_name": "Westbound Sargent at Berry", "stop_lat": 49.898212424428905, "stop_lon": -97.210433731003278 }, "geometry": { "type": "Point", "coordinates": [ 628520.732952334685251, 5528848.133231871761382 ] } },
{ "type": "Feature", "properties": { "stop_code": 27001, "stop_name": "Northbound Sherwin at Stevenson", "stop_lat": 49.913939122215979, "stop_lon": -97.2112445948393 }, "geometry": { "type": "Point", "coordinates": [ 628420.73292281513568, 5530595.134982786141336 ] } },
{ "type": "Feature", "properties": { "stop_code": 27002, "stop_name": "Southbound Sherwin at Notre Dame", "stop_lat": 49.916259779156348, "stop_lon": -97.211242303607477 }, "geometry": { "type": "Point", "coordinates": [ 628414.732925219810568, 5530853.134981350973248 ] } },
{ "type": "Feature", "properties": { "stop_code": 31009, "stop_name": "Eastbound Inkster at Main", "stop_lat": 49.927566419654262, "stop_lon": -97.124824887577958 }, "geometry": { "type": "Point", "coordinates": [ 634586.738279472105205, 5532261.93729005381465 ] } },
{ "type": "Feature", "properties": { "stop_code": 31010, "stop_name": "Eastbound Inkster at Salter", "stop_lat": 49.929328965562874, "stop_lon": -97.130358060706101 }, "geometry": { "type": "Point", "coordinates": [ 634184.737904216046445, 5532447.950806554406881 ] } },
{ "type": "Feature", "properties": { "stop_code": 31011, "stop_name": "Eastbound Inkster at McGregor", "stop_lat": 49.931781311435344, "stop_lon": -97.137969197399897 }, "geometry": { "type": "Point", "coordinates": [ 633631.737396172364242, 5532706.969203026033938 ] } },
{ "type": "Feature", "properties": { "stop_code": 31012, "stop_name": "Westbound Inkster at Main", "stop_lat": 49.92777114465288, "stop_lon": -97.124691537810364 }, "geometry": { "type": "Point", "coordinates": [ 634595.738288828870282, 5532284.936963922344148 ] } },
{ "type": "Feature", "properties": { "stop_code": 31013, "stop_name": "Westbound Inkster at Salter", "stop_lat": 49.929486501443328, "stop_lon": -97.130087212422865 }, "geometry": { "type": "Point", "coordinates": [ 634203.737922718049958, 5532465.950148768723011 ] } },
{ "type": "Feature", "properties": { "stop_code": 31014, "stop_name": "Westbound Inkster at McGregor", "stop_lat": 49.931967401269269, "stop_lon": -97.137794804634154 }, "geometry": { "type": "Point", "coordinates": [ 633643.73740795487538, 5532727.96878501214087 ] } },
{ "type": "Feature", "properties": { "stop_code": 31015, "stop_name": "Eastbound Inkster at McPhillips", "stop_lat": 49.938841663665094, "stop_lon": -97.159870775132859 }, "geometry": { "type": "Point", "coordinates": [ 632040.73598565463908, 5533453.020888290368021 ] } },
{ "type": "Feature", "properties": { "stop_code": 31016, "stop_name": "Westbound Inkster at McPhillips", "stop_lat": 49.939065737137703, "stop_lon": -97.159820427033736 }, "geometry": { "type": "Point", "coordinates": [ 632043.735989052685909, 5533478.0207723621279 ] } },
{ "type": "Feature", "properties": { "stop_code": 31017, "stop_name": "Northbound Keewatin at Burrows", "stop_lat": 49.938871606444913, "stop_lon": -97.194921098455126 }, "geometry": { "type": "Point", "coordinates": [ 629525.733870438183658, 5533395.099803571589291 ] } },
{ "type": "Feature", "properties": { "stop_code": 31018, "stop_name": "Southbound Keewatin at Burrows", "stop_lat": 49.938292053392495, "stop_lon": -97.195249366495673 }, "geometry": { "type": "Point", "coordinates": [ 629503.733850920340046, 5533330.100520090200007 ] } },
{ "type": "Feature", "properties": { "stop_code": 31019, "stop_name": "Westbound Murray at Main", "stop_lat": 49.954513540619232, "stop_lon": -97.099882440811442 }, "geometry": { "type": "Point", "coordinates": [ 636300.740070095751435, 5535302.875038008205593 ] } },
{ "type": "Feature", "properties": { "stop_code": 31020, "stop_name": "Northbound Fife at Mountain", "stop_lat": 49.933133329599912, "stop_lon": -97.171445508886833 }, "geometry": { "type": "Point", "coordinates": [ 631225.735260884626769, 5532798.047437313012779 ] } },
{ "type": "Feature", "properties": { "stop_code": 31021, "stop_name": "Southbound Fife at Mountain", "stop_lat": 49.932763683680648, "stop_lon": -97.171961167799722 }, "geometry": { "type": "Point", "coordinates": [ 631189.735228958539665, 5532756.048608182929456 ] } },
{ "type": "Feature", "properties": { "stop_code": 31022, "stop_name": "Eastbound Waterford Green at Dr. Jose Rizal", "stop_lat": 49.95631528313627, "stop_lon": -97.19566306100748 }, "geometry": { "type": "Point", "coordinates": [ 629425.733844951959327, 5535333.101460685953498 ] } },
{ "type": "Feature", "properties": { "stop_code": 31023, "stop_name": "Northbound Salter at Inkster", "stop_lat": 49.929533914997776, "stop_lon": -97.129681281698481 }, "geometry": { "type": "Point", "coordinates": [ 634232.737950276816264, 5532471.949161578901112 ] } },
{ "type": "Feature", "properties": { "stop_code": 31024, "stop_name": "Northbound Salter at Leila", "stop_lat": 49.944979090809518, "stop_lon": -97.120287734525647 }, "geometry": { "type": "Point", "coordinates": [ 634863.738610278116539, 5534205.926204076968133 ] } },
{ "type": "Feature", "properties": { "stop_code": 31025, "stop_name": "Northbound Salter at Cork", "stop_lat": 49.947059796600669, "stop_lon": -97.119356429557754 }, "geometry": { "type": "Point", "coordinates": [ 634924.738677077577449, 5534438.923912283033133 ] } },
{ "type": "Feature", "properties": { "stop_code": 31026, "stop_name": "Southbound Salter at Cork", "stop_lat": 49.946796678526866, "stop_lon": -97.119770918433019 }, "geometry": { "type": "Point", "coordinates": [ 634895.738648012047634, 5534408.924935783259571 ] } },
{ "type": "Feature", "properties": { "stop_code": 31027, "stop_name": "Southbound Salter at Leila", "stop_lat": 49.944058791436873, "stop_lon": -97.120114480309354 }, "geometry": { "type": "Point", "coordinates": [ 634878.738621351309121, 5534103.925771868787706 ] } },
{ "type": "Feature", "properties": { "stop_code": 31028, "stop_name": "Southbound Salter at Inkster", "stop_lat": 49.929156593595359, "stop_lon": -97.130267191402297 }, "geometry": { "type": "Point", "coordinates": [ 634191.737910191644914, 5532428.950584940612316 ] } },
{ "type": "Feature", "properties": { "stop_code": 31029, "stop_name": "Eastbound Selkirk at Bentley", "stop_lat": 49.9311394826168, "stop_lon": -97.209632418005583 }, "geometry": { "type": "Point", "coordinates": [ 628490.733029168914072, 5532510.131572571583092 ] } },
{ "type": "Feature", "properties": { "stop_code": 31030, "stop_name": "Northbound King Edward at Manitoba", "stop_lat": 49.933738077692908, "stop_lon": -97.2066654124216 }, "geometry": { "type": "Point", "coordinates": [ 628696.733197341207415, 5532804.125229207798839 ] } },
{ "type": "Feature", "properties": { "stop_code": 31031, "stop_name": "Northbound King Edward at Herman", "stop_lat": 49.93658056066554, "stop_lon": -97.206671374040596 }, "geometry": { "type": "Point", "coordinates": [ 628688.733199808513746, 5533120.125246708281338 ] } },
{ "type": "Feature", "properties": { "stop_code": 31032, "stop_name": "Eastbound Burrows at Plymouth", "stop_lat": 49.937295674515433, "stop_lon": -97.189043048092046 }, "geometry": { "type": "Point", "coordinates": [ 629951.734210776048712, 5533230.086882254108787 ] } },
{ "type": "Feature", "properties": { "stop_code": 31033, "stop_name": "Northbound Burrows at Tyndall", "stop_lat": 49.934651718420199, "stop_lon": -97.18563036409806 }, "geometry": { "type": "Point", "coordinates": [ 630203.734408983378671, 5532942.079318068921566 ] } },
{ "type": "Feature", "properties": { "stop_code": 31034, "stop_name": "Southbound Burrows at Tyndall", "stop_lat": 49.934647965442167, "stop_lon": -97.185964962656399 }, "geometry": { "type": "Point", "coordinates": [ 630179.734389212680981, 5532941.080061004497111 ] } },
{ "type": "Feature", "properties": { "stop_code": 31035, "stop_name": "Westbound Burrows at Plymouth", "stop_lat": 49.937860374477367, "stop_lon": -97.190067125039718 }, "geometry": { "type": "Point", "coordinates": [ 629876.734151407959871, 5533291.089143170043826 ] } },
{ "type": "Feature", "properties": { "stop_code": 31036, "stop_name": "Westbound Selkirk at Bentley", "stop_lat": 49.931265339253713, "stop_lon": -97.209627754042927 }, "geometry": { "type": "Point", "coordinates": [ 628490.733029551221989, 5532524.131562815047801 ] } },
{ "type": "Feature", "properties": { "stop_code": 31037, "stop_name": "Westbound Templeton at Garden Park", "stop_lat": 49.955147788896895, "stop_lon": -97.13837851649518 }, "geometry": { "type": "Point", "coordinates": [ 633537.737392791896127, 5535303.97027887403965 ] } },
{ "type": "Feature", "properties": { "stop_code": 31038, "stop_name": "Westbound Templeton at Meredith", "stop_lat": 49.956066085857962, "stop_lon": -97.141229090439964 }, "geometry": { "type": "Point", "coordinates": [ 633330.737205069628544, 5535400.977103807032108 ] } },
{ "type": "Feature", "properties": { "stop_code": 31039, "stop_name": "Eastbound Jefferson at Ritchie", "stop_lat": 49.960652954879976, "stop_lon": -97.190035149198039 }, "geometry": { "type": "Point", "coordinates": [ 629817.734175959019922, 5535825.089123351499438 ] } },
{ "type": "Feature", "properties": { "stop_code": 31040, "stop_name": "Eastbound Matheson at Main", "stop_lat": 49.928950628196006, "stop_lon": -97.122541697485275 }, "geometry": { "type": "Point", "coordinates": [ 634746.738437937456183, 5532419.93168706074357 ] } },
{ "type": "Feature", "properties": { "stop_code": 31041, "stop_name": "Eastbound Matheson at Cochrane", "stop_lat": 49.927775605562033, "stop_lon": -97.118867020548279 }, "geometry": { "type": "Point", "coordinates": [ 635013.738691297592595, 5532295.922610774636269 ] } },
{ "type": "Feature", "properties": { "stop_code": 31042, "stop_name": "Westbound Matheson at Cochrane", "stop_lat": 49.927891109075219, "stop_lon": -97.118778920387726 }, "geometry": { "type": "Point", "coordinates": [ 635019.738697546999902, 5532308.922393188811839 ] } },
{ "type": "Feature", "properties": { "stop_code": 31043, "stop_name": "Westbound Matheson at Main", "stop_lat": 49.929151328616079, "stop_lon": -97.122715043559964 }, "geometry": { "type": "Point", "coordinates": [ 634733.738426188705489, 5532441.932114557363093 ] } },
{ "type": "Feature", "properties": { "stop_code": 31044, "stop_name": "Southbound Dr. Jose Rizal at Highwater", "stop_lat": 49.957793364933814, "stop_lon": -97.195273189723324 }, "geometry": { "type": "Point", "coordinates": [ 629449.733868902781978, 5535498.100612117908895 ] } },
{ "type": "Feature", "properties": { "stop_code": 31045, "stop_name": "Southbound Sheppard at Jefferson", "stop_lat": 49.950447575555899, "stop_lon": -97.169674598654893 }, "geometry": { "type": "Point", "coordinates": [ 631305.735386946354993, 5534726.043455266393721 ] } },
{ "type": "Feature", "properties": { "stop_code": 31046, "stop_name": "Southbound Sheppard at Inkster", "stop_lat": 49.944307723540852, "stop_lon": -97.175608190630115 }, "geometry": { "type": "Point", "coordinates": [ 630896.735018487786874, 5534033.056899374350905 ] } },
{ "type": "Feature", "properties": { "stop_code": 31047, "stop_name": "Southbound Sheppard at Church", "stop_lat": 49.939019858011832, "stop_lon": -97.179682424238379 }, "geometry": { "type": "Point", "coordinates": [ 630618.734767521731555, 5533438.066053563728929 ] } },
{ "type": "Feature", "properties": { "stop_code": 31048, "stop_name": "Northbound Sheppard at Church", "stop_lat": 49.939345246976494, "stop_lon": -97.179210236477417 }, "geometry": { "type": "Point", "coordinates": [ 630651.73479619063437, 5533475.064994962885976 ] } },
{ "type": "Feature", "properties": { "stop_code": 31049, "stop_name": "Northbound Sheppard at Inkster", "stop_lat": 49.944375470181576, "stop_lon": -97.175340798599379 }, "geometry": { "type": "Point", "coordinates": [ 630915.735034765675664, 5534041.056295728310943 ] } },
{ "type": "Feature", "properties": { "stop_code": 31050, "stop_name": "Southbound Fife at Mapleglen", "stop_lat": 49.942599333248751, "stop_lon": -97.165400388102555 }, "geometry": { "type": "Point", "coordinates": [ 631633.735643358901143, 5533861.033653509803116 ] } },
{ "type": "Feature", "properties": { "stop_code": 31051, "stop_name": "Eastbound Inkster at Parr", "stop_lat": 49.933400132978662, "stop_lon": -97.142993234318965 }, "geometry": { "type": "Point", "coordinates": [ 633266.737065913737752, 5532877.981222662143409 ] } },
{ "type": "Feature", "properties": { "stop_code": 31052, "stop_name": "Eastbound Inkster at Andrews", "stop_lat": 49.930739355919307, "stop_lon": -97.13470683872994 }, "geometry": { "type": "Point", "coordinates": [ 633868.73761280043982, 5532596.961345520801842 ] } },
{ "type": "Feature", "properties": { "stop_code": 31053, "stop_name": "Westbound Inkster at Andrews", "stop_lat": 49.93092544075742, "stop_lon": -97.134532437402086 }, "geometry": { "type": "Point", "coordinates": [ 633880.737624674919061, 5532617.960925294086337 ] } },
{ "type": "Feature", "properties": { "stop_code": 31054, "stop_name": "Westbound Inkster at Parr", "stop_lat": 49.933434580770786, "stop_lon": -97.142336944348258 }, "geometry": { "type": "Point", "coordinates": [ 633313.737109075882472, 5532882.979659044183791 ] } },
{ "type": "Feature", "properties": { "stop_code": 31055, "stop_name": "Northbound Fife at Mapleglen", "stop_lat": 49.942747079043507, "stop_lon": -97.16507419904552 }, "geometry": { "type": "Point", "coordinates": [ 631656.735663791187108, 5533878.032904858700931 ] } },
{ "type": "Feature", "properties": { "stop_code": 31056, "stop_name": "Westbound Inkster Garden at Keewatin", "stop_lat": 49.949349166471634, "stop_lon": -97.195979165939804 }, "geometry": { "type": "Point", "coordinates": [ 629421.733819825574756, 5534558.102136604487896 ] } },
{ "type": "Feature", "properties": { "stop_code": 31057, "stop_name": "Westbound Inkster Garden at Garton", "stop_lat": 49.950483645083906, "stop_lon": -97.199519429781887 }, "geometry": { "type": "Point", "coordinates": [ 629164.733617994817905, 5534678.109843490645289 ] } },
{ "type": "Feature", "properties": { "stop_code": 31058, "stop_name": "Northbound Plymouth at Burrows", "stop_lat": 49.937789016056108, "stop_lon": -97.188954868165794 }, "geometry": { "type": "Point", "coordinates": [ 629956.734216435463168, 5533285.086688605137169 ] } },
{ "type": "Feature", "properties": { "stop_code": 31059, "stop_name": "Northbound McPhillips at Templeton", "stop_lat": 49.958112788211416, "stop_lon": -97.143213770756162 }, "geometry": { "type": "Point", "coordinates": [ 633182.737076568766497, 5535624.981842391192913 ] } },
{ "type": "Feature", "properties": { "stop_code": 31062, "stop_name": "Westbound Gilbert at Burrows", "stop_lat": 49.932480807951023, "stop_lon": -97.186004534549994 }, "geometry": { "type": "Point", "coordinates": [ 630182.73438471974805, 5532700.080143788829446 ] } },
{ "type": "Feature", "properties": { "stop_code": 31063, "stop_name": "Southbound Buller at Manitoba", "stop_lat": 49.931102355902446, "stop_lon": -97.188160432689685 }, "geometry": { "type": "Point", "coordinates": [ 630031.734256394789554, 5532543.084917635656893 ] } },
{ "type": "Feature", "properties": { "stop_code": 31064, "stop_name": "Westbound Burrows at Lucas", "stop_lat": 49.942089502785542, "stop_lon": -97.217421964156017 }, "geometry": { "type": "Point", "coordinates": [ 627902.73261107399594, 5533714.148102477192879 ] } },
{ "type": "Feature", "properties": { "stop_code": 31065, "stop_name": "Westbound Lucas at Tallman", "stop_lat": 49.942315143047416, "stop_lon": -97.220396346727597 }, "geometry": { "type": "Point", "coordinates": [ 627688.732449793838896, 5533734.154351161792874 ] } },
{ "type": "Feature", "properties": { "stop_code": 31066, "stop_name": "Westbound Lucas at Barnham", "stop_lat": 49.942320858151319, "stop_lon": -97.224284810143601 }, "geometry": { "type": "Point", "coordinates": [ 627409.732240533921868, 5533728.16247265599668 ] } },
{ "type": "Feature", "properties": { "stop_code": 31067, "stop_name": "Northbound Inksbrook at Inkster", "stop_lat": 49.946892627856926, "stop_lon": -97.223266397981263 }, "geometry": { "type": "Point", "coordinates": [ 627470.732299612020142, 5534238.160355983301997 ] } },
{ "type": "Feature", "properties": { "stop_code": 31068, "stop_name": "Northbound Inksbrook at Meridian", "stop_lat": 49.949012887064029, "stop_lon": -97.224861156252302 }, "geometry": { "type": "Point", "coordinates": [ 627350.732216242235154, 5534471.163679233752191 ] } },
{ "type": "Feature", "properties": { "stop_code": 31069, "stop_name": "Eastbound Haggart at Cleveland", "stop_lat": 49.949710503314797, "stop_lon": -97.218158230760906 }, "geometry": { "type": "Point", "coordinates": [ 627829.732578460127115, 5534560.149662078358233 ] } },
{ "type": "Feature", "properties": { "stop_code": 31070, "stop_name": "Eastbound Haggart at Groverdale", "stop_lat": 49.949703605353669, "stop_lon": -97.212457008501019 }, "geometry": { "type": "Point", "coordinates": [ 628238.732890932820737, 5534569.137613788247108 ] } },
{ "type": "Feature", "properties": { "stop_code": 31071, "stop_name": "Northbound King Edward at Inkster Garden", "stop_lat": 49.953014709164833, "stop_lon": -97.2067022421422 }, "geometry": { "type": "Point", "coordinates": [ 628642.73321429581847, 5534947.125340394675732 ] } },
{ "type": "Feature", "properties": { "stop_code": 31072, "stop_name": "Westbound Old Commonwealth at Singh", "stop_lat": 49.956498494626153, "stop_lon": -97.199922472935683 }, "geometry": { "type": "Point", "coordinates": [ 629119.733600963721983, 5535346.110729204490781 ] } },
{ "type": "Feature", "properties": { "stop_code": 31073, "stop_name": "Westbound Old Commonwealth at Wildbrook", "stop_lat": 49.957142315062598, "stop_lon": -97.203732570241144 }, "geometry": { "type": "Point", "coordinates": [ 628844.733385419938713, 5535411.118965234607458 ] } },
{ "type": "Feature", "properties": { "stop_code": 31074, "stop_name": "Southbound King Edward at Inkster Garden", "stop_lat": 49.953071236098623, "stop_lon": -97.206867434627398 }, "geometry": { "type": "Point", "coordinates": [ 628630.733205098193139, 5534953.125694593414664 ] } },
{ "type": "Feature", "properties": { "stop_code": 31075, "stop_name": "Westbound Haggart at Groverdale", "stop_lat": 49.94979522297492, "stop_lon": -97.212565137055037 }, "geometry": { "type": "Point", "coordinates": [ 628230.732885052450001, 5534579.137843505479395 ] } },
{ "type": "Feature", "properties": { "stop_code": 31076, "stop_name": "Westbound Haggart at Cleveland", "stop_lat": 49.949837217484912, "stop_lon": -97.218209314613404 }, "geometry": { "type": "Point", "coordinates": [ 627825.732575805159286, 5534574.149769674986601 ] } },
{ "type": "Feature", "properties": { "stop_code": 31078, "stop_name": "Northbound McPhillips at Burrows", "stop_lat": 49.927192602529942, "stop_lon": -97.168911481809317 }, "geometry": { "type": "Point", "coordinates": [ 631423.735410581808537, 5532142.041646689176559 ] } },
{ "type": "Feature", "properties": { "stop_code": 31079, "stop_name": "Eastbound Adsum at Mandalay", "stop_lat": 49.954850551014715, "stop_lon": -97.184243905468321 }, "geometry": { "type": "Point", "coordinates": [ 630248.73451121756807, 5535190.076283837668598 ] } },
{ "type": "Feature", "properties": { "stop_code": 31080, "stop_name": "Eastbound Jefferson at Mandalay", "stop_lat": 49.960500930870282, "stop_lon": -97.182051396741755 }, "geometry": { "type": "Point", "coordinates": [ 630390.734647281467915, 5535822.071409826166928 ] } },
{ "type": "Feature", "properties": { "stop_code": 31081, "stop_name": "Westbound Jefferson at Ritchie", "stop_lat": 49.960778591748273, "stop_lon": -97.190016494167125 }, "geometry": { "type": "Point", "coordinates": [ 629818.734177174861543, 5535839.089082514867187 ] } },
{ "type": "Feature", "properties": { "stop_code": 31082, "stop_name": "Southbound Sheppard at Mapleglen", "stop_lat": 49.946787487134046, "stop_lon": -97.173716334907724 }, "geometry": { "type": "Point", "coordinates": [ 631025.735135904164053, 5534312.052628288976848 ] } },
{ "type": "Feature", "properties": { "stop_code": 31083, "stop_name": "Northbound Sheppard at Mapleglen", "stop_lat": 49.946686185334279, "stop_lon": -97.173566834908883 }, "geometry": { "type": "Point", "coordinates": [ 631036.735144908772781, 5534301.052289397455752 ] } },
{ "type": "Feature", "properties": { "stop_code": 31084, "stop_name": "Southbound Keewatin at Inkster Garden", "stop_lat": 49.948754419926473, "stop_lon": -97.195332277948907 }, "geometry": { "type": "Point", "coordinates": [ 629469.733856516773812, 5534493.10072264354676 ] } },
{ "type": "Feature", "properties": { "stop_code": 31085, "stop_name": "Eastbound Jefferson at Watson", "stop_lat": 49.946195995974534, "stop_lon": -97.15851721545846 }, "geometry": { "type": "Point", "coordinates": [ 632117.736078513553366, 5534273.017772939987481 ] } },
{ "type": "Feature", "properties": { "stop_code": 31086, "stop_name": "Southbound Main at Partridge", "stop_lat": 49.941170044606224, "stop_lon": -97.114498530295776 }, "geometry": { "type": "Point", "coordinates": [ 635289.739010624005459, 5533792.911822829395533 ] } },
{ "type": "Feature", "properties": { "stop_code": 37003, "stop_name": "Northbound Southall at Southall Loop", "stop_lat": 49.9500897483085, "stop_lon": -97.116506108326007 }, "geometry": { "type": "Point", "coordinates": [ 635120.738878988428041, 5534780.916861674748361 ] } },
{ "type": "Feature", "properties": { "stop_code": 37004, "stop_name": "Southbound Salter at Templeton", "stop_lat": 49.94875977462079, "stop_lon": -97.11824472053658 }, "geometry": { "type": "Point", "coordinates": [ 634999.738756200298667, 5534629.921168542467058 ] } },
{ "type": "Feature", "properties": { "stop_code": 37005, "stop_name": "Westbound Old Commonwealth at Dr. Jose Rizal", "stop_lat": 49.955136336221592, "stop_lon": -97.195623479211434 }, "geometry": { "type": "Point", "coordinates": [ 629431.733846065355465, 5535202.101371834985912 ] } },
{ "type": "Feature", "properties": { "stop_code": 37011, "stop_name": "Eastbound Discovery at Discovery", "stop_lat": 49.952969324239106, "stop_lon": -97.220087275710682 }, "geometry": { "type": "Point", "coordinates": [ 627682.732476966339163, 5534919.153716672211885 ] } },
{ "type": "Feature", "properties": { "stop_code": 37012, "stop_name": "Northbound McGregor at Leila", "stop_lat": 49.94629713866469, "stop_lon": -97.126132698744485 }, "geometry": { "type": "Point", "coordinates": [ 634440.738209082046524, 5534341.940576869063079 ] } },
{ "type": "Feature", "properties": { "stop_code": 37013, "stop_name": "Northbound Salter at Templeton", "stop_lat": 49.948765141531482, "stop_lon": -97.118021472920859 }, "geometry": { "type": "Point", "coordinates": [ 635015.738771769101731, 5534630.920615386217833 ] } },
{ "type": "Feature", "properties": { "stop_code": 37014, "stop_name": "Southbound McGregor at Partridge", "stop_lat": 49.94614209292871, "stop_lon": -97.126556889740101 }, "geometry": { "type": "Point", "coordinates": [ 634410.738179927109741, 5534323.941613601520658 ] } },
{ "type": "Feature", "properties": { "stop_code": 37015, "stop_name": "Eastbound Murray at Main", "stop_lat": 49.954461891705485, "stop_lon": -97.100023889635636 }, "geometry": { "type": "Point", "coordinates": [ 636290.7400597485248, 5535296.875398450531065 ] } },
{ "type": "Feature", "properties": { "stop_code": 40708, "stop_name": "Eastbound Pandora at Wabasha", "stop_lat": 49.893288457444953, "stop_lon": -96.998192526776464 }, "geometry": { "type": "Point", "coordinates": [ 643776.748336205957457, 5528686.593501801602542 ] } },
{ "type": "Feature", "properties": { "stop_code": 40715, "stop_name": "Westbound Pandora at Wabasha", "stop_lat": 49.893413419219215, "stop_lon": -96.997616467128722 }, "geometry": { "type": "Point", "coordinates": [ 643817.748389117885381, 5528701.591782512143254 ] } },
{ "type": "Feature", "properties": { "stop_code": 40849, "stop_name": "Westbound Grassie at Lagimodiere", "stop_lat": 49.922499693893741, "stop_lon": -97.050608742666 }, "geometry": { "type": "Point", "coordinates": [ 639927.743835114641115, 5531834.744152798317373 ] } },
{ "type": "Feature", "properties": { "stop_code": 40851, "stop_name": "Northbound Gateway at Bonner", "stop_lat": 49.946652395467375, "stop_lon": -97.048532567757803 }, "geometry": { "type": "Point", "coordinates": [ 640006.744030359433964, 5534523.738602814264596 ] } },
{ "type": "Feature", "properties": { "stop_code": 40854, "stop_name": "Southbound Gateway at Bonner", "stop_lat": 49.946876883349468, "stop_lon": -97.048509555142957 }, "geometry": { "type": "Point", "coordinates": [ 640007.74403248319868, 5534548.73854090180248 ] } },
{ "type": "Feature", "properties": { "stop_code": 40868, "stop_name": "Eastbound Concordia at Reg Wyatt West", "stop_lat": 49.912888541280743, "stop_lon": -97.049812324310835 }, "geometry": { "type": "Point", "coordinates": [ 640012.743889918550849, 5530767.741885982453823 ] } },
{ "type": "Feature", "properties": { "stop_code": 40869, "stop_name": "Westbound Concordia at Reg Wyatt West", "stop_lat": 49.913145937888721, "stop_lon": -97.049606924281122 }, "geometry": { "type": "Point", "coordinates": [ 640026.743906965944916, 5530796.741321022622287 ] } },
{ "type": "Feature", "properties": { "stop_code": 40900, "stop_name": "Westbound Springfield at Spring Valley West", "stop_lat": 49.931247497322722, "stop_lon": -97.049280330463816 }, "geometry": { "type": "Point", "coordinates": [ 639997.743952827062458, 5532809.740553393028677 ] } },
{ "type": "Feature", "properties": { "stop_code": 41002, "stop_name": "Westbound Munroe at Panet", "stop_lat": 49.907519514525539, "stop_lon": -97.067035080866376 }, "geometry": { "type": "Point", "coordinates": [ 638791.742505104863085, 5530138.788747431710362 ] } },
{ "type": "Feature", "properties": { "stop_code": 41003, "stop_name": "Eastbound Edison at Henderson", "stop_lat": 49.941147461508578, "stop_lon": -97.088979436607502 }, "geometry": { "type": "Point", "coordinates": [ 637120.740859916899353, 5533836.846911286003888 ] } },
{ "type": "Feature", "properties": { "stop_code": 41004, "stop_name": "Northbound Plessis at Pandora", "stop_lat": 49.893842805398741, "stop_lon": -97.025224332231076 }, "geometry": { "type": "Point", "coordinates": [ 641833.745933778234757, 5528696.67258476279676 ] } },
{ "type": "Feature", "properties": { "stop_code": 41005, "stop_name": "Southbound Ravenhurst at John Duncan", "stop_lat": 49.898244925383707, "stop_lon": -96.969286888926277 }, "geometry": { "type": "Point", "coordinates": [ 645837.751072813523933, 5529293.505373539403081 ] } },
{ "type": "Feature", "properties": { "stop_code": 41006, "stop_name": "Southbound Ravenhurst at Merkel Manza", "stop_lat": 49.891392868138759, "stop_lon": -96.968391028714365 }, "geometry": { "type": "Point", "coordinates": [ 645922.751152701210231, 5528533.502505039796233 ] } },
{ "type": "Feature", "properties": { "stop_code": 41007, "stop_name": "Northbound Ravenhurst at Renshaw", "stop_lat": 49.889867451356281, "stop_lon": -96.968093085184407 }, "geometry": { "type": "Point", "coordinates": [ 645948.751180133549497, 5528364.501558339223266 ] } },
{ "type": "Feature", "properties": { "stop_code": 41008, "stop_name": "Northbound Ravenhurst at Edmund Gale", "stop_lat": 49.895425357015561, "stop_lon": -96.968541931934936 }, "geometry": { "type": "Point", "coordinates": [ 645899.75114238448441, 5528981.503019897267222 ] } },
{ "type": "Feature", "properties": { "stop_code": 41009, "stop_name": "Northbound Ravenhurst at John Duncan", "stop_lat": 49.89827453049174, "stop_lon": -96.968923581517842 }, "geometry": { "type": "Point", "coordinates": [ 645863.751108265132643, 5529297.504241337068379 ] } },
{ "type": "Feature", "properties": { "stop_code": 41010, "stop_name": "Southbound Plessis at Pandora", "stop_lat": 49.893883271429601, "stop_lon": -97.025487240159038 }, "geometry": { "type": "Point", "coordinates": [ 641814.745911146048456, 5528700.673338422551751 ] } },
{ "type": "Feature", "properties": { "stop_code": 41011, "stop_name": "Eastbound Kimberly at London", "stop_lat": 49.918602470149395, "stop_lon": -97.077360736525463 }, "geometry": { "type": "Point", "coordinates": [ 638018.741715498850681, 5531351.816340550780296 ] } },
{ "type": "Feature", "properties": { "stop_code": 41012, "stop_name": "Westbound Tu-Pelo at Budden", "stop_lat": 49.927048286470033, "stop_lon": -97.069221814796634 }, "geometry": { "type": "Point", "coordinates": [ 638578.742354332469404, 5532305.794741889461875 ] } },
{ "type": "Feature", "properties": { "stop_code": 41013, "stop_name": "Eastbound Tu-Pelo at Budden", "stop_lat": 49.926749325586293, "stop_lon": -97.06909442507596 }, "geometry": { "type": "Point", "coordinates": [ 638588.742363971658051, 5532272.79439883865416 ] } },
{ "type": "Feature", "properties": { "stop_code": 41014, "stop_name": "Westbound Edmund Gale at Ravenhurst", "stop_lat": 49.895142654471307, "stop_lon": -96.969347509990754 }, "geometry": { "type": "Point", "coordinates": [ 645842.75106351042632, 5528948.505528727546334 ] } },
{ "type": "Feature", "properties": { "stop_code": 41015, "stop_name": "Westbound Edmund Gale at Audette", "stop_lat": 49.895924189070399, "stop_lon": -96.972879466818938 }, "geometry": { "type": "Point", "coordinates": [ 645586.750721491174772, 5529028.516514991410077 ] } },
{ "type": "Feature", "properties": { "stop_code": 41016, "stop_name": "Northbound Audette at George Marshall", "stop_lat": 49.8986640261476, "stop_lon": -96.973182402814402 }, "geometry": { "type": "Point", "coordinates": [ 645556.750695196911693, 5529332.517483185976744 ] } },
{ "type": "Feature", "properties": { "stop_code": 41017, "stop_name": "Eastbound Audette at George Marshall", "stop_lat": 49.898585809670401, "stop_lon": -96.973338862640077 }, "geometry": { "type": "Point", "coordinates": [ 645545.750679992837831, 5529323.517967082560062 ] } },
{ "type": "Feature", "properties": { "stop_code": 41018, "stop_name": "Eastbound Edmund Gale at Audette", "stop_lat": 49.895761907305783, "stop_lon": -96.97285841827312 }, "geometry": { "type": "Point", "coordinates": [ 645588.750723350443877, 5529010.516448001377285 ] } },
{ "type": "Feature", "properties": { "stop_code": 41019, "stop_name": "Northbound Alex Taylor at Kildare", "stop_lat": 49.900687514580731, "stop_lon": -96.963934127455076 }, "geometry": { "type": "Point", "coordinates": [ 646214.751600159332156, 5529575.488653118722141 ] } },
{ "type": "Feature", "properties": { "stop_code": 41020, "stop_name": "Eastbound Transcona at Edward Schreyer", "stop_lat": 49.901418176882352, "stop_lon": -97.038005798991634 }, "geometry": { "type": "Point", "coordinates": [ 640893.744854719610885, 5529514.708920472301543 ] } },
{ "type": "Feature", "properties": { "stop_code": 41021, "stop_name": "Westbound Transcona at Edward Schreyer", "stop_lat": 49.901657078248668, "stop_lon": -97.038302488106922 }, "geometry": { "type": "Point", "coordinates": [ 640871.744830102659762, 5529540.70975592918694 ] } },
{ "type": "Feature", "properties": { "stop_code": 41024, "stop_name": "Westbound El Tassi at Peguis", "stop_lat": 49.902962837087266, "stop_lon": -97.05010122020164 }, "geometry": { "type": "Point", "coordinates": [ 640020.743855839478783, 5529663.742610063403845 ] } },
{ "type": "Feature", "properties": { "stop_code": 41026, "stop_name": "Westbound El Tassi at Art Miki", "stop_lat": 49.904800724930098, "stop_lon": -97.057227528349443 }, "geometry": { "type": "Point", "coordinates": [ 639503.743280964787118, 5529854.762173531576991 ] } },
{ "type": "Feature", "properties": { "stop_code": 41027, "stop_name": "Northbound Art Miki at Ravelston", "stop_lat": 49.90641816780871, "stop_lon": -97.05766394133876 }, "geometry": { "type": "Point", "coordinates": [ 639467.743247647536919, 5530033.763375164009631 ] } },
{ "type": "Feature", "properties": { "stop_code": 41028, "stop_name": "Northbound Philip Lee at Golden Boy", "stop_lat": 49.908439129199216, "stop_lon": -97.054811012008926 }, "geometry": { "type": "Point", "coordinates": [ 639666.743479358963668, 5530263.755594251677394 ] } },
{ "type": "Feature", "properties": { "stop_code": 41029, "stop_name": "Eastbound Prairie Crocus at Angela Everts", "stop_lat": 49.908687547158223, "stop_lon": -97.051931761069 }, "geometry": { "type": "Point", "coordinates": [ 639872.743712833849713, 5530296.747694139368832 ] } },
{ "type": "Feature", "properties": { "stop_code": 41030, "stop_name": "Eastbound Prairie Crocus at Peguis", "stop_lat": 49.9083874753983, "stop_lon": -97.048002128976023 }, "geometry": { "type": "Point", "coordinates": [ 640155.744033265858889, 5530270.736850595101714 ] } },
{ "type": "Feature", "properties": { "stop_code": 41031, "stop_name": "Westbound McIvor at Fair", "stop_lat": 49.945292483581127, "stop_lon": -97.055919439595456 }, "geometry": { "type": "Point", "coordinates": [ 639480.74342891422566, 5534358.758890104480088 ] } },
{ "type": "Feature", "properties": { "stop_code": 41032, "stop_name": "Westbound McIvor at Chornick", "stop_lat": 49.947273837349549, "stop_lon": -97.060356078774504 }, "geometry": { "type": "Point", "coordinates": [ 639156.743075441103429, 5534570.770984086208045 ] } },
{ "type": "Feature", "properties": { "stop_code": 41033, "stop_name": "Westbound McIvor at Cranlea", "stop_lat": 49.948442234452891, "stop_lon": -97.062985598373302 }, "geometry": { "type": "Point", "coordinates": [ 638964.742867622757331, 5534695.778112564235926 ] } },
{ "type": "Feature", "properties": { "stop_code": 41034, "stop_name": "Eastbound McIvor at Cranlea", "stop_lat": 49.948279966688247, "stop_lon": -97.062964228823446 }, "geometry": { "type": "Point", "coordinates": [ 638966.742869144422002, 5534677.778053699061275 ] } },
{ "type": "Feature", "properties": { "stop_code": 41035, "stop_name": "Eastbound McIvor at Chornick", "stop_lat": 49.947130480554776, "stop_lon": -97.060389716806796 }, "geometry": { "type": "Point", "coordinates": [ 639154.743072608252987, 5534554.771074355579913 ] } },
{ "type": "Feature", "properties": { "stop_code": 41036, "stop_name": "Eastbound McIvor at Fair", "stop_lat": 49.945111301248694, "stop_lon": -97.055843100675716 }, "geometry": { "type": "Point", "coordinates": [ 639486.743434872594662, 5534338.75868022441864 ] } },
{ "type": "Feature", "properties": { "stop_code": 41037, "stop_name": "Westbound Prairie Crocus at Peguis", "stop_lat": 49.908478773319935, "stop_lon": -97.048082013264633 }, "geometry": { "type": "Point", "coordinates": [ 640149.744026814354584, 5530280.737072318792343 ] } },
{ "type": "Feature", "properties": { "stop_code": 41038, "stop_name": "Westbound Prairie Crocus at Angela Everts", "stop_lat": 49.908928053223192, "stop_lon": -97.052325997049437 }, "geometry": { "type": "Point", "coordinates": [ 639843.743681065039709, 5530322.748779908753932 ] } },
{ "type": "Feature", "properties": { "stop_code": 41039, "stop_name": "Southbound Philip Lee at Golden Boy", "stop_lat": 49.908477657977301, "stop_lon": -97.054962673951124 }, "geometry": { "type": "Point", "coordinates": [ 639655.743467157357372, 5530267.756009782664478 ] } },
{ "type": "Feature", "properties": { "stop_code": 41040, "stop_name": "Southbound Art Miki at Ravelston", "stop_lat": 49.906634137797269, "stop_lon": -97.057669193575194 }, "geometry": { "type": "Point", "coordinates": [ 639466.743247453938238, 5530057.763391003012657 ] } },
{ "type": "Feature", "properties": { "stop_code": 41041, "stop_name": "Eastbound El Tassi at Art Miki", "stop_lat": 49.904674177879301, "stop_lon": -97.057190830791441 }, "geometry": { "type": "Point", "coordinates": [ 639506.743283778079785, 5529840.762072515673935 ] } },
{ "type": "Feature", "properties": { "stop_code": 41043, "stop_name": "Eastbound Devonshire at Private Davy", "stop_lat": 49.908357409067058, "stop_lon": -97.044089477890793 }, "geometry": { "type": "Point", "coordinates": [ 640436.744355438509956, 5530274.72599056083709 ] } },
{ "type": "Feature", "properties": { "stop_code": 41044, "stop_name": "Eastbound Devonshire at Jerry Klein", "stop_lat": 49.908299626243412, "stop_lon": -97.038548338015744 }, "geometry": { "type": "Point", "coordinates": [ 640834.744816567748785, 5530278.710498344153166 ] } },
{ "type": "Feature", "properties": { "stop_code": 41045, "stop_name": "Northbound Kildonan Meadow at Devonshire", "stop_lat": 49.909003019517066, "stop_lon": -97.031235171606042 }, "geometry": { "type": "Point", "coordinates": [ 641357.745434829732403, 5530370.689855987206101 ] } },
{ "type": "Feature", "properties": { "stop_code": 41046, "stop_name": "Northbound Kildonan Meadow at Edna Perry", "stop_lat": 49.911250243937907, "stop_lon": -97.031672966462835 }, "geometry": { "type": "Point", "coordinates": [ 641319.745399975217879, 5530619.691116797737777 ] } },
{ "type": "Feature", "properties": { "stop_code": 41047, "stop_name": "Eastbound Kildonan Meadow at Tommy Douglas", "stop_lat": 49.913426453537966, "stop_lon": -97.029522741832565 }, "geometry": { "type": "Point", "coordinates": [ 641467.745585610158741, 5530865.685024089179933 ] } },
{ "type": "Feature", "properties": { "stop_code": 41048, "stop_name": "Southbound Plessis at Sanford Fleming", "stop_lat": 49.906009269795447, "stop_lon": -97.025521365789658 }, "geometry": { "type": "Point", "coordinates": [ 641776.745921157649718, 5530048.673537605442107 ] } },
{ "type": "Feature", "properties": { "stop_code": 41049, "stop_name": "Southbound Plessis at Kildonan Meadow", "stop_lat": 49.903914156012064, "stop_lon": -97.025565133052496 }, "geometry": { "type": "Point", "coordinates": [ 641779.745915144914761, 5529815.673645415343344 ] } },
{ "type": "Feature", "properties": { "stop_code": 41050, "stop_name": "Eastbound Pandora at Plessis", "stop_lat": 49.89335024782941, "stop_lon": -97.024297604251913 }, "geometry": { "type": "Point", "coordinates": [ 641901.746013281983323, 5528643.669922814704478 ] } },
{ "type": "Feature", "properties": { "stop_code": 41051, "stop_name": "Eastbound Pandora at Hoka", "stop_lat": 49.893346242896008, "stop_lon": -97.015650927949238 }, "geometry": { "type": "Point", "coordinates": [ 642522.746767968870699, 5528659.644943414255977 ] } },
{ "type": "Feature", "properties": { "stop_code": 41052, "stop_name": "Northbound Redonda at St. Martin", "stop_lat": 49.903497396204763, "stop_lon": -96.979010233727166 }, "geometry": { "type": "Point", "coordinates": [ 645123.750140722724609, 5529858.535513300448656 ] } },
{ "type": "Feature", "properties": { "stop_code": 41053, "stop_name": "Northbound Redonda at McMeans", "stop_lat": 49.905709562081917, "stop_lon": -96.978973483894961 }, "geometry": { "type": "Point", "coordinates": [ 645119.750146642443724, 5530104.535423517227173 ] } },
{ "type": "Feature", "properties": { "stop_code": 41054, "stop_name": "Northbound Redonda at Bramwell", "stop_lat": 49.906873707646469, "stop_lon": -96.979189455834401 }, "geometry": { "type": "Point", "coordinates": [ 645100.75012730085291, 5530233.536098952405155 ] } },
{ "type": "Feature", "properties": { "stop_code": 41055, "stop_name": "Southbound Redonda at Bramwell", "stop_lat": 49.906750297387575, "stop_lon": -96.979333893560622 }, "geometry": { "type": "Point", "coordinates": [ 645090.750113388057798, 5530219.536541130393744 ] } },
{ "type": "Feature", "properties": { "stop_code": 41056, "stop_name": "Southbound Redonda at McMeans", "stop_lat": 49.905299246116755, "stop_lon": -96.979171692324798 }, "geometry": { "type": "Point", "coordinates": [ 645106.750127280014567, 5530058.536027973517776 ] } },
{ "type": "Feature", "properties": { "stop_code": 41057, "stop_name": "Southbound Redonda at St. Martin", "stop_lat": 49.903581695673971, "stop_lon": -96.979201689462514 }, "geometry": { "type": "Point", "coordinates": [ 645109.75012254412286, 5529867.536102171987295 ] } },
{ "type": "Feature", "properties": { "stop_code": 41058, "stop_name": "Northbound Plessis at Regent", "stop_lat": 49.895416805946617, "stop_lon": -97.025215772063802 }, "geometry": { "type": "Point", "coordinates": [ 641829.745936196879484, 5528871.672573396936059 ] } },
{ "type": "Feature", "properties": { "stop_code": 41059, "stop_name": "Northbound Plessis at Kildare", "stop_lat": 49.900652831810397, "stop_lon": -97.025266572754518 }, "geometry": { "type": "Point", "coordinates": [ 641810.745937407482415, 5529453.672762815840542 ] } },
{ "type": "Feature", "properties": { "stop_code": 41060, "stop_name": "Northbound Plessis at Sanford Fleming", "stop_lat": 49.906309191914957, "stop_lon": -97.025174851588204 }, "geometry": { "type": "Point", "coordinates": [ 641800.745951364282519, 5530082.672547407448292 ] } },
{ "type": "Feature", "properties": { "stop_code": 41061, "stop_name": "Northbound Plessis at Devonshire", "stop_lat": 49.90965446558706, "stop_lon": -97.025121782148403 }, "geometry": { "type": "Point", "coordinates": [ 641794.745959521620534, 5530454.67242341209203 ] } },
{ "type": "Feature", "properties": { "stop_code": 41062, "stop_name": "Westbound Kildonan Meadow at Plessis", "stop_lat": 49.913763143807863, "stop_lon": -97.02605439464692 }, "geometry": { "type": "Point", "coordinates": [ 641715.745883516268805, 5530909.675128471106291 ] } },
{ "type": "Feature", "properties": { "stop_code": 41063, "stop_name": "Westbound Kildonan Meadow at Tommy Douglas", "stop_lat": 49.913566483583359, "stop_lon": -97.029294155867078 }, "geometry": { "type": "Point", "coordinates": [ 641483.745605300064199, 5530881.684374479576945 ] } },
{ "type": "Feature", "properties": { "stop_code": 41064, "stop_name": "Southbound Kildonan Meadow at Edna Perry", "stop_lat": 49.910937053569782, "stop_lon": -97.031769292576243 }, "geometry": { "type": "Point", "coordinates": [ 641313.745391449541785, 5530584.69138753041625 ] } },
{ "type": "Feature", "properties": { "stop_code": 41065, "stop_name": "Southbound Kildonan Meadow at Devonshire", "stop_lat": 49.908788943715358, "stop_lon": -97.031341388345382 }, "geometry": { "type": "Point", "coordinates": [ 641350.745425559813157, 5530346.690155789256096 ] } },
{ "type": "Feature", "properties": { "stop_code": 41066, "stop_name": "Westbound Devonshire at Jerry Klein", "stop_lat": 49.908426150914003, "stop_lon": -97.039114268469319 }, "geometry": { "type": "Point", "coordinates": [ 640793.744769337121397, 5530291.712087581865489 ] } },
{ "type": "Feature", "properties": { "stop_code": 41067, "stop_name": "Westbound Devonshire at Private Davy", "stop_lat": 49.90845176681615, "stop_lon": -97.044350299866366 }, "geometry": { "type": "Point", "coordinates": [ 640417.744333970826119, 5530284.726717236451805 ] } },
{ "type": "Feature", "properties": { "stop_code": 41068, "stop_name": "Westbound Nairn at Watt", "stop_lat": 49.90494941779189, "stop_lon": -97.105270782441806 }, "geometry": { "type": "Point", "coordinates": [ 636053.739629168179817, 5529782.888464828021824 ] } },
{ "type": "Feature", "properties": { "stop_code": 41069, "stop_name": "Southbound Watt at Talbot", "stop_lat": 49.906190496185118, "stop_lon": -97.10470682928964 }, "geometry": { "type": "Point", "coordinates": [ 636090.739670991082676, 5529921.887043411843479 ] } },
{ "type": "Feature", "properties": { "stop_code": 41070, "stop_name": "Southbound Panet at Munroe", "stop_lat": 49.907013260378072, "stop_lon": -97.06634499515016 }, "geometry": { "type": "Point", "coordinates": [ 638842.742558800149709, 5530083.786888763308525 ] } },
{ "type": "Feature", "properties": { "stop_code": 41071, "stop_name": "Southbound Plessis at Kildare", "stop_lat": 49.900469763759851, "stop_lon": -97.025608274252505 }, "geometry": { "type": "Point", "coordinates": [ 641786.745907746488228, 5529432.673740155994892 ] } },
{ "type": "Feature", "properties": { "stop_code": 41072, "stop_name": "Westbound Talbot at Watt", "stop_lat": 49.906659761038618, "stop_lon": -97.104799857836994 }, "geometry": { "type": "Point", "coordinates": [ 636082.739664784166962, 5529973.887281456962228 ] } },
{ "type": "Feature", "properties": { "stop_code": 41073, "stop_name": "Eastbound Munroe at Gateway", "stop_lat": 49.914778628416443, "stop_lon": -97.089255941732318 }, "geometry": { "type": "Point", "coordinates": [ 637175.740811839234084, 5530904.847475470043719 ] } },
{ "type": "Feature", "properties": { "stop_code": 41074, "stop_name": "Southbound Watt at Watt", "stop_lat": 49.922807858400944, "stop_lon": -97.0917807100288 }, "geometry": { "type": "Point", "coordinates": [ 636971.740632399916649, 5531792.854060243815184 ] } },
{ "type": "Feature", "properties": { "stop_code": 41075, "stop_name": "Northbound Peguis at Devonshire", "stop_lat": 49.908032513249111, "stop_lon": -97.047222549496681 }, "geometry": { "type": "Point", "coordinates": [ 640212.744096860988066, 5530232.734689380973577 ] } },
{ "type": "Feature", "properties": { "stop_code": 41076, "stop_name": "Northbound Watt at Talbot", "stop_lat": 49.90671334195838, "stop_lon": -97.104226718426105 }, "geometry": { "type": "Point", "coordinates": [ 636123.739706090418622, 5529980.885829576291144 ] } },
{ "type": "Feature", "properties": { "stop_code": 47001, "stop_name": "Southbound Gateway at McLeod", "stop_lat": 49.929031638552495, "stop_lon": -97.071107287715165 }, "geometry": { "type": "Point", "coordinates": [ 638437.742209416348487, 5532522.79979513399303 ] } },
{ "type": "Feature", "properties": { "stop_code": 47002, "stop_name": "Southbound Gateway at Antrim", "stop_lat": 49.923085798037363, "stop_lon": -97.078673151119261 }, "geometry": { "type": "Point", "coordinates": [ 637911.741619701380841, 5531847.81983454618603 ] } },
{ "type": "Feature", "properties": { "stop_code": 47003, "stop_name": "Northbound Gateway at Munroe", "stop_lat": 49.914588477160073, "stop_lon": -97.089179877515846 }, "geometry": { "type": "Point", "coordinates": [ 637181.740817315643653, 5530883.847276963293552 ] } },
{ "type": "Feature", "properties": { "stop_code": 47004, "stop_name": "Northbound Gateway at Antrim", "stop_lat": 49.923055133386981, "stop_lon": -97.078451449723886 }, "geometry": { "type": "Point", "coordinates": [ 637927.741636620485224, 5531844.819249371066689 ] } },
{ "type": "Feature", "properties": { "stop_code": 47005, "stop_name": "Northbound Gateway at McLeod", "stop_lat": 49.929106739439788, "stop_lon": -97.070755932045444 }, "geometry": { "type": "Point", "coordinates": [ 638462.742236839374527, 5532531.798857518471777 ] } },
{ "type": "Feature", "properties": { "stop_code": 47008, "stop_name": "Northbound Ravenhurst at Merkel Manza", "stop_lat": 49.891730036227493, "stop_lon": -96.96812624299352 }, "geometry": { "type": "Point", "coordinates": [ 645940.751178934937343, 5528571.501682198606431 ] } },
{ "type": "Feature", "properties": { "stop_code": 47010, "stop_name": "Southbound Redonda at Summerlea", "stop_lat": 49.911515222780963, "stop_lon": -96.979705834958438 }, "geometry": { "type": "Point", "coordinates": [ 645049.75008312240243, 5530748.537732306867838 ] } },
{ "type": "Feature", "properties": { "stop_code": 47011, "stop_name": "Eastbound Chalmers at Watt", "stop_lat": 49.911113708619666, "stop_lon": -97.10268912491992 }, "geometry": { "type": "Point", "coordinates": [ 636221.739821575349197, 5530472.88195042219013 ] } },
{ "type": "Feature", "properties": { "stop_code": 47012, "stop_name": "Northbound Gateway at Fleming", "stop_lat": 49.917222650848991, "stop_lon": -97.085829856576325 }, "geometry": { "type": "Point", "coordinates": [ 637414.741070967866108, 5531182.838574969209731 ] } },
{ "type": "Feature", "properties": { "stop_code": 47013, "stop_name": "Northbound Gateway at Burnett", "stop_lat": 49.932710073753455, "stop_lon": -97.066222400279315 }, "geometry": { "type": "Point", "coordinates": [ 638777.742595444316976, 5532940.786731366999447 ] } },
{ "type": "Feature", "properties": { "stop_code": 47014, "stop_name": "Northbound Gateway at Springfield", "stop_lat": 49.93573919258985, "stop_lon": -97.062324418216505 }, "geometry": { "type": "Point", "coordinates": [ 639048.74290667148307, 5533284.776237164624035 ] } },
{ "type": "Feature", "properties": { "stop_code": 47015, "stop_name": "Southbound Gateway at Springfield", "stop_lat": 49.935435064637232, "stop_lon": -97.062963744280964 }, "geometry": { "type": "Point", "coordinates": [ 639003.742855640128255, 5533249.777963982895017 ] } },
{ "type": "Feature", "properties": { "stop_code": 47016, "stop_name": "Southbound Gateway at Burnett", "stop_lat": 49.932511698811652, "stop_lon": -97.066732011433203 }, "geometry": { "type": "Point", "coordinates": [ 638741.742555166361853, 5532917.788100051693618 ] } },
{ "type": "Feature", "properties": { "stop_code": 47017, "stop_name": "Southbound Gateway at Fleming", "stop_lat": 49.91715626165464, "stop_lon": -97.086166825533354 }, "geometry": { "type": "Point", "coordinates": [ 637390.741045572212897, 5531174.839453496038914 ] } },
{ "type": "Feature", "properties": { "stop_code": 47018, "stop_name": "Southbound Watt at Chalmers", "stop_lat": 49.91096262258781, "stop_lon": -97.103349717936098 }, "geometry": { "type": "Point", "coordinates": [ 636174.739773703739047, 5530454.883627220988274 ] } },
{ "type": "Feature", "properties": { "stop_code": 47020, "stop_name": "Eastbound Regent at Kildonan Place Hub", "stop_lat": 49.896568396921701, "stop_lon": -97.059800114542782 }, "geometry": { "type": "Point", "coordinates": [ 639342.743066355586052, 5528934.76912129111588 ] } },
{ "type": "Feature", "properties": { "stop_code": 50074, "stop_name": "Westbound Cottonwood at Autumnwood", "stop_lat": 49.861085589987283, "stop_lon": -97.076138541594887 }, "geometry": { "type": "Point", "coordinates": [ 638270.741749334731139, 5524959.812746400013566 ] } },
{ "type": "Feature", "properties": { "stop_code": 50477, "stop_name": "Northbound Dunkirk at Hastings", "stop_lat": 49.838147687370402, "stop_lon": -97.115477149591754 }, "geometry": { "type": "Point", "coordinates": [ 635507.738836348755285, 5522337.913771294988692 ] } },
{ "type": "Feature", "properties": { "stop_code": 50478, "stop_name": "Southbound Dunkirk at Hastings", "stop_lat": 49.837397263780815, "stop_lon": -97.115242075950761 }, "geometry": { "type": "Point", "coordinates": [ 635526.738852064241655, 5522254.91318176407367 ] } },
{ "type": "Feature", "properties": { "stop_code": 50881, "stop_name": "Eastbound St Vital Centre Terminal at St. Vital Centre (676 to Bridgwater)", "stop_lat": 49.826686088498739, "stop_lon": -97.110402432208517 }, "geometry": { "type": "Point", "coordinates": [ 635904.7391825231025, 5521072.90101592708379 ] } },
{ "type": "Feature", "properties": { "stop_code": 50884, "stop_name": "Eastbound St Vital Centre Hub at St. Vital Centre (FX2)", "stop_lat": 49.826436739459773, "stop_lon": -97.111107383577462 }, "geometry": { "type": "Point", "coordinates": [ 635854.739132299553603, 5521043.902785375714302 ] } },
{ "type": "Feature", "properties": { "stop_code": 50957, "stop_name": "Eastbound John Forsyth at Aldgate", "stop_lat": 49.811067910937126, "stop_lon": -97.079651677297704 }, "geometry": { "type": "Point", "coordinates": [ 638160.741428528912365, 5519392.821733396500349 ] } },
{ "type": "Feature", "properties": { "stop_code": 51010, "stop_name": "Northbound Dakota at Southglen", "stop_lat": 49.81610082682959, "stop_lon": -97.097900080313806 }, "geometry": { "type": "Point", "coordinates": [ 636833.740071800304577, 5519918.869226479902864 ] } },
{ "type": "Feature", "properties": { "stop_code": 51011, "stop_name": "Southbound Dakota at Southglen", "stop_lat": 49.815651129815393, "stop_lon": -97.097903811691495 }, "geometry": { "type": "Point", "coordinates": [ 636834.740071066305973, 5519868.86923367343843 ] } },
{ "type": "Feature", "properties": { "stop_code": 51012, "stop_name": "Northbound Creek Bend at St. Anne's", "stop_lat": 49.810389024405609, "stop_lon": -97.071824967404936 }, "geometry": { "type": "Point", "coordinates": [ 638725.742029819986783, 5519331.800951437093318 ] } },
{ "type": "Feature", "properties": { "stop_code": 51013, "stop_name": "Eastbound Carriere at St. Mary's", "stop_lat": 49.871901818701147, "stop_lon": -97.112994480967117 }, "geometry": { "type": "Point", "coordinates": [ 635591.739045400405303, 5526094.907732258550823 ] } },
{ "type": "Feature", "properties": { "stop_code": 51014, "stop_name": "Eastbound Dugald at Terracon", "stop_lat": 49.885729482305173, "stop_lon": -97.059274146565755 }, "geometry": { "type": "Point", "coordinates": [ 639411.743096964433789, 5527730.767616044729948 ] } },
{ "type": "Feature", "properties": { "stop_code": 51015, "stop_name": "Eastbound Dugald at Beghin", "stop_lat": 49.885725347226028, "stop_lon": -97.042470677298439 }, "geometry": { "type": "Point", "coordinates": [ 640618.744465587893501, 5527761.721305434592068 ] } },
{ "type": "Feature", "properties": { "stop_code": 51016, "stop_name": "Westbound Dugald at Beghin", "stop_lat": 49.885933405320451, "stop_lon": -97.043603855258127 }, "geometry": { "type": "Point", "coordinates": [ 640536.744371868786402, 5527782.724467844702303 ] } },
{ "type": "Feature", "properties": { "stop_code": 51017, "stop_name": "Westbound Dugald at Terracon", "stop_lat": 49.885947319219738, "stop_lon": -97.059390706494995 }, "geometry": { "type": "Point", "coordinates": [ 639402.743087881361134, 5527754.767934619449079 ] } },
{ "type": "Feature", "properties": { "stop_code": 51018, "stop_name": "Eastbound Abinojii Mikanah at Island Shore", "stop_lat": 49.8405243645404, "stop_lon": -97.064909822232437 }, "geometry": { "type": "Point", "coordinates": [ 639136.74260221212171, 5522694.782580048777163 ] } },
{ "type": "Feature", "properties": { "stop_code": 51019, "stop_name": "Eastbound Abinojii Mikanah at De La Seigneurie", "stop_lat": 49.840510788173923, "stop_lon": -97.057121433751476 }, "geometry": { "type": "Point", "coordinates": [ 639696.743221924640238, 5522707.761434704065323 ] } },
{ "type": "Feature", "properties": { "stop_code": 51020, "stop_name": "Westbound Abinojii Mikanah at De La Seigneurie", "stop_lat": 49.840817818507269, "stop_lon": -97.057192578996577 }, "geometry": { "type": "Point", "coordinates": [ 639690.74321653379593, 5522741.761631145142019 ] } },
{ "type": "Feature", "properties": { "stop_code": 51021, "stop_name": "Westbound Abinojii Mikanah at Island Shore", "stop_lat": 49.840831623100243, "stop_lon": -97.064994916585434 }, "geometry": { "type": "Point", "coordinates": [ 639129.742595824878663, 5522728.782811703160405 ] } },
{ "type": "Feature", "properties": { "stop_code": 51022, "stop_name": "Southbound Tache at Provencher", "stop_lat": 49.891076041843043, "stop_lon": -97.124972584900036 }, "geometry": { "type": "Point", "coordinates": [ 634677.738232050905935, 5528204.937490617856383 ] } },
{ "type": "Feature", "properties": { "stop_code": 51023, "stop_name": "Northbound Tache at Provencher", "stop_lat": 49.890610369607373, "stop_lon": -97.124545092350914 }, "geometry": { "type": "Point", "coordinates": [ 634709.738260897109285, 5528153.936439538374543 ] } },
{ "type": "Feature", "properties": { "stop_code": 51024, "stop_name": "Southbound Westmount at Fermor", "stop_lat": 49.856516677677398, "stop_lon": -97.065384088951802 }, "geometry": { "type": "Point", "coordinates": [ 639056.742581538157538, 5524471.783965144306421 ] } },
{ "type": "Feature", "properties": { "stop_code": 51025, "stop_name": "Eastbound Elizabeth at Harper", "stop_lat": 49.870919387094162, "stop_lon": -97.07789109695544 }, "geometry": { "type": "Point", "coordinates": [ 638116.741625122493133, 5526049.817446620203555 ] } },
{ "type": "Feature", "properties": { "stop_code": 51026, "stop_name": "Eastbound Elizabeth at Bleau", "stop_lat": 49.870924777310925, "stop_lon": -97.074968203046822 }, "geometry": { "type": "Point", "coordinates": [ 638326.741849669837393, 5526055.809702498838305 ] } },
{ "type": "Feature", "properties": { "stop_code": 51027, "stop_name": "Northbound Archibald at Provencher", "stop_lat": 49.896101461306131, "stop_lon": -97.10546421169056 }, "geometry": { "type": "Point", "coordinates": [ 636064.739606156595983, 5528798.888908787630498 ] } },
{ "type": "Feature", "properties": { "stop_code": 51028, "stop_name": "Westbound Elizabeth at Bleau", "stop_lat": 49.871049963723749, "stop_lon": -97.075464257592202 }, "geometry": { "type": "Point", "coordinates": [ 638290.741811583284289, 5526068.811020060442388 ] } },
{ "type": "Feature", "properties": { "stop_code": 51029, "stop_name": "Westbound Elizabeth at Harper", "stop_lat": 49.871045235631442, "stop_lon": -97.077886100578297 }, "geometry": { "type": "Point", "coordinates": [ 638116.741625635419041, 5526063.817434188909829 ] } },
{ "type": "Feature", "properties": { "stop_code": 51030, "stop_name": "Northbound Westmount at Fermor", "stop_lat": 49.856900188568083, "stop_lon": -97.065187895981282 }, "geometry": { "type": "Point", "coordinates": [ 639069.742597400443628, 5524514.783438672311604 ] } },
{ "type": "Feature", "properties": { "stop_code": 51031, "stop_name": "Eastbound Cottonwood at Lochmoor", "stop_lat": 49.861893802957013, "stop_lon": -97.0609669835452 }, "geometry": { "type": "Point", "coordinates": [ 639358.742936945753172, 5525077.772052376531065 ] } },
{ "type": "Feature", "properties": { "stop_code": 51032, "stop_name": "Eastbound Burland at Paddington", "stop_lat": 49.805649976171388, "stop_lon": -97.105120138347161 }, "geometry": { "type": "Point", "coordinates": [ 636343.739538099616766, 5518743.887579743750393 ] } },
{ "type": "Feature", "properties": { "stop_code": 51033, "stop_name": "Westbound Compark at St. Anne's", "stop_lat": 49.824416007140108, "stop_lon": -97.084490156106 }, "geometry": { "type": "Point", "coordinates": [ 637774.741075563244522, 5520867.834529047831893 ] } },
{ "type": "Feature", "properties": { "stop_code": 51034, "stop_name": "Northbound Avalon at Avalon Loop", "stop_lat": 49.829331476276629, "stop_lon": -97.115416571549446 }, "geometry": { "type": "Point", "coordinates": [ 635536.738831611350179, 5521357.913579299114645 ] } },
{ "type": "Feature", "properties": { "stop_code": 51035, "stop_name": "Northbound Des Hivernants at Edward Turner", "stop_lat": 49.838006120983508, "stop_lon": -97.040879811962782 }, "geometry": { "type": "Point", "coordinates": [ 640871.744547398178838, 5522459.716494145803154 ] } },
{ "type": "Feature", "properties": { "stop_code": 51037, "stop_name": "Eastbound Edward Turner at Snowberry", "stop_lat": 49.837751504079677, "stop_lon": -97.034353321898564 }, "geometry": { "type": "Point", "coordinates": [ 641341.745094642043114, 5522443.698122512549162 ] } },
{ "type": "Feature", "properties": { "stop_code": 51038, "stop_name": "Southbound Edward Turner at Water Lily", "stop_lat": 49.835747011441839, "stop_lon": -97.031792186054759 }, "geometry": { "type": "Point", "coordinates": [ 641531.745309569174424, 5522225.690847657620907 ] } },
{ "type": "Feature", "properties": { "stop_code": 51039, "stop_name": "Southbound Edward Turner at Sage Creek", "stop_lat": 49.833664394634759, "stop_lon": -97.032572086689697 }, "geometry": { "type": "Point", "coordinates": [ 641481.745241137919948, 5521992.693044630810618 ] } },
{ "type": "Feature", "properties": { "stop_code": 51040, "stop_name": "Southbound Sage Creek at Borealis", "stop_lat": 49.827512154611746, "stop_lon": -97.029957274868494 }, "geometry": { "type": "Point", "coordinates": [ 641687.745457104407251, 5521313.685563255101442 ] } },
{ "type": "Feature", "properties": { "stop_code": 51042, "stop_name": "Westbound Robert Bockstael at Sage Creek", "stop_lat": 49.824753207397713, "stop_lon": -97.033281259607364 }, "geometry": { "type": "Point", "coordinates": [ 641456.745171585702337, 5521000.69498482439667 ] } },
{ "type": "Feature", "properties": { "stop_code": 51043, "stop_name": "Westbound Robert Bockstael at Snowy Owl", "stop_lat": 49.822106607295026, "stop_lon": -97.034751138587339 }, "geometry": { "type": "Point", "coordinates": [ 641358.745044489041902, 5520703.699124925769866 ] } },
{ "type": "Feature", "properties": { "stop_code": 51045, "stop_name": "Westbound Robert Bockstael at Butterfly", "stop_lat": 49.821537603937593, "stop_lon": -97.042573998174035 }, "geometry": { "type": "Point", "coordinates": [ 640797.744389218394645, 5520625.721109099686146 ] } },
{ "type": "Feature", "properties": { "stop_code": 51047, "stop_name": "Northbound Des Hivernants at Butterfly", "stop_lat": 49.823383576103367, "stop_lon": -97.045349792044874 }, "geometry": { "type": "Point", "coordinates": [ 640592.744161615148187, 5520825.728861822746694 ] } },
{ "type": "Feature", "properties": { "stop_code": 51048, "stop_name": "Northbound Des Hivernants at Cinnamon Teal", "stop_lat": 49.82589259980076, "stop_lon": -97.044247522952404 }, "geometry": { "type": "Point", "coordinates": [ 640664.744255237397738, 5521106.725811281241477 ] } },
{ "type": "Feature", "properties": { "stop_code": 51049, "stop_name": "Eastbound Fermor at Dunkirk", "stop_lat": 49.85014974728486, "stop_lon": -97.120060234671399 }, "geometry": { "type": "Point", "coordinates": [ 635144.738529039546847, 5523663.925206981599331 ] } },
{ "type": "Feature", "properties": { "stop_code": 51050, "stop_name": "Eastbound Island Lakes at Island Shore", "stop_lat": 49.833075406712283, "stop_lon": -97.067543490602006 }, "geometry": { "type": "Point", "coordinates": [ 638968.742387365084141, 5521861.78962439764291 ] } },
{ "type": "Feature", "properties": { "stop_code": 51051, "stop_name": "Eastbound Island Lakes at Desjardins", "stop_lat": 49.83490505200718, "stop_lon": -97.063993757083281 }, "geometry": { "type": "Point", "coordinates": [ 639218.742668664664961, 5522071.780068836174905 ] } },
{ "type": "Feature", "properties": { "stop_code": 51052, "stop_name": "Eastbound Island Shore at Evelyne Reese", "stop_lat": 49.828856110491614, "stop_lon": -97.063206292006385 }, "geometry": { "type": "Point", "coordinates": [ 639292.742724637733772, 5521400.777898943051696 ] } },
{ "type": "Feature", "properties": { "stop_code": 51053, "stop_name": "Southbound Evelyne Reese at Bonaventure", "stop_lat": 49.82723891685162, "stop_lon": -97.064397192437482 }, "geometry": { "type": "Point", "coordinates": [ 639211.742628797190264, 5521218.781108132563531 ] } },
{ "type": "Feature", "properties": { "stop_code": 51054, "stop_name": "Southbound Evelyne Reese at Geneva", "stop_lat": 49.824578274534801, "stop_lon": -97.063975032206159 }, "geometry": { "type": "Point", "coordinates": [ 639249.742659369017929, 5520923.77994975168258 ] } },
{ "type": "Feature", "properties": { "stop_code": 51055, "stop_name": "Southbound Evelyne Reese at Warde", "stop_lat": 49.822964455298489, "stop_lon": -97.061606299113706 }, "geometry": { "type": "Point", "coordinates": [ 639424.742845382075757, 5520748.77352403383702 ] } },
{ "type": "Feature", "properties": { "stop_code": 51056, "stop_name": "Eastbound Jack Reimer at Eau-Claire", "stop_lat": 49.822408875929526, "stop_lon": -97.058514096402178 }, "geometry": { "type": "Point", "coordinates": [ 639648.743091356591322, 5520692.765110402368009 ] } },
{ "type": "Feature", "properties": { "stop_code": 51057, "stop_name": "Northbound De La Seigneurie at Jack Reimer", "stop_lat": 49.822917304107378, "stop_lon": -97.053975019664847 }, "geometry": { "type": "Point", "coordinates": [ 639973.743456964963116, 5520757.752695936709642 ] } },
{ "type": "Feature", "properties": { "stop_code": 51058, "stop_name": "Northbound De La Seigneurie at Lucerne", "stop_lat": 49.825004775704038, "stop_lon": -97.05454475534836 }, "geometry": { "type": "Point", "coordinates": [ 639926.743413120741025, 5520988.754274011589587 ] } },
{ "type": "Feature", "properties": { "stop_code": 51059, "stop_name": "Northbound De La Seigneurie at Warde", "stop_lat": 49.826690304003151, "stop_lon": -97.056354285476061 }, "geometry": { "type": "Point", "coordinates": [ 639791.743269081693143, 5521172.759242098778486 ] } },
{ "type": "Feature", "properties": { "stop_code": 51060, "stop_name": "Eastbound Warde at Lagimodiere", "stop_lat": 49.828265839826429, "stop_lon": -97.048420728781565 }, "geometry": { "type": "Point", "coordinates": [ 640357.743914459249936, 5521362.737420639023185 ] } },
{ "type": "Feature", "properties": { "stop_code": 51061, "stop_name": "Southbound Des Hivernants at Ironweed", "stop_lat": 49.828838725871989, "stop_lon": -97.04346122625816 }, "geometry": { "type": "Point", "coordinates": [ 640712.744323381688446, 5521435.72364080697298 ] } },
{ "type": "Feature", "properties": { "stop_code": 51062, "stop_name": "Westbound Warde at Lagimodiere", "stop_lat": 49.8284338196721, "stop_lon": -97.04824710337256 }, "geometry": { "type": "Point", "coordinates": [ 640369.743928853422403, 5521381.736941068433225 ] } },
{ "type": "Feature", "properties": { "stop_code": 51063, "stop_name": "Southbound De La Seigneurie at Warde", "stop_lat": 49.826504800043431, "stop_lon": -97.056556388160715 }, "geometry": { "type": "Point", "coordinates": [ 639777.743252639542334, 5521151.759793513454497 ] } },
{ "type": "Feature", "properties": { "stop_code": 51064, "stop_name": "Southbound De La Seigneurie at Lucerne", "stop_lat": 49.824865388601609, "stop_lon": -97.054814529459307 }, "geometry": { "type": "Point", "coordinates": [ 639907.743391200434417, 5520972.755012840032578 ] } },
{ "type": "Feature", "properties": { "stop_code": 51065, "stop_name": "Westbound Jack Reimer at De La Seigneurie", "stop_lat": 49.822701922787807, "stop_lon": -97.054539810388079 }, "geometry": { "type": "Point", "coordinates": [ 639933.743411109782755, 5520732.754244321957231 ] } },
{ "type": "Feature", "properties": { "stop_code": 51066, "stop_name": "Eastbound Jack Reimer at Eau-Claire", "stop_lat": 49.822483586965262, "stop_lon": -97.058677949109324 }, "geometry": { "type": "Point", "coordinates": [ 639636.743078326107934, 5520700.765557552687824 ] } },
{ "type": "Feature", "properties": { "stop_code": 51067, "stop_name": "Northbound Evelyne Reese at Warde", "stop_lat": 49.823070695760272, "stop_lon": -97.061504726098235 }, "geometry": { "type": "Point", "coordinates": [ 639431.742853563977405, 5520760.773249139077961 ] } },
{ "type": "Feature", "properties": { "stop_code": 51068, "stop_name": "Northbound Evelyne Reese at Geneva", "stop_lat": 49.824647397729088, "stop_lon": -97.063805421609359 }, "geometry": { "type": "Point", "coordinates": [ 639261.742672846885398, 5520931.779491662047803 ] } },
{ "type": "Feature", "properties": { "stop_code": 51069, "stop_name": "Northbound Evelyne Reese at Bonaventure", "stop_lat": 49.827190948744082, "stop_lon": -97.064218342544564 }, "geometry": { "type": "Point", "coordinates": [ 639224.742642871220596, 5521213.780624619685113 ] } },
{ "type": "Feature", "properties": { "stop_code": 51070, "stop_name": "Eastbound Island Shore at Evelyne Resse", "stop_lat": 49.828739949133109, "stop_lon": -97.063252648345355 }, "geometry": { "type": "Point", "coordinates": [ 639289.742720846552402, 5521387.778023617342114 ] } },
{ "type": "Feature", "properties": { "stop_code": 51072, "stop_name": "Northbound De La Seigneurie at Pynoo", "stop_lat": 49.836565264237471, "stop_lon": -97.055179522441222 }, "geometry": { "type": "Point", "coordinates": [ 639847.74337402288802, 5522272.756095042452216 ] } },
{ "type": "Feature", "properties": { "stop_code": 51073, "stop_name": "Southbound Desjardins at De La Seigneurie", "stop_lat": 49.838717507943549, "stop_lon": -97.057999999092445 }, "geometry": { "type": "Point", "coordinates": [ 639638.743149584392086, 5522506.763820399530232 ] } },
{ "type": "Feature", "properties": { "stop_code": 51075, "stop_name": "Westbound Island Lakes at Desjardins", "stop_lat": 49.835031365381454, "stop_lon": -97.064016526878433 }, "geometry": { "type": "Point", "coordinates": [ 639216.742666998645291, 5522085.780131212435663 ] } },
{ "type": "Feature", "properties": { "stop_code": 51076, "stop_name": "Westbound Island Lakes at Island Shore", "stop_lat": 49.833141580375262, "stop_lon": -97.067735546321501 }, "geometry": { "type": "Point", "coordinates": [ 638954.742372384294868, 5521868.790140978060663 ] } },
{ "type": "Feature", "properties": { "stop_code": 51077, "stop_name": "Westbound Fermor at Dunkirk", "stop_lat": 49.850358085128519, "stop_lon": -97.120149531745142 }, "geometry": { "type": "Point", "coordinates": [ 635137.738523059641011, 5523686.925428815186024 ] } },
{ "type": "Feature", "properties": { "stop_code": 51078, "stop_name": "Westbound John Forsyth at Aldgate", "stop_lat": 49.811182004572608, "stop_lon": -97.079480357006474 }, "geometry": { "type": "Point", "coordinates": [ 638172.741441707359627, 5519405.821281986311078 ] } },
{ "type": "Feature", "properties": { "stop_code": 51079, "stop_name": "Southbound Mazenod at Twin Lakes", "stop_lat": 49.878893581650281, "stop_lon": -97.049665172087202 }, "geometry": { "type": "Point", "coordinates": [ 640121.743866019882262, 5526988.741230378858745 ] } },
{ "type": "Feature", "properties": { "stop_code": 51080, "stop_name": "Southbound Mazenod at Black Diamond", "stop_lat": 49.874314418814564, "stop_lon": -97.049626974844514 }, "geometry": { "type": "Point", "coordinates": [ 640137.743864309275523, 5526479.741091449744999 ] } },
{ "type": "Feature", "properties": { "stop_code": 51081, "stop_name": "Northbound Ray Marius at Camiel Sys", "stop_lat": 49.8755284290718, "stop_lon": -97.037900107839704 }, "geometry": { "type": "Point", "coordinates": [ 640976.744836100842804, 5526636.708421080373228 ] } },
{ "type": "Feature", "properties": { "stop_code": 51082, "stop_name": "Northbound St Joseph at Hebert", "stop_lat": 49.897981746462555, "stop_lon": -97.125930317292287 }, "geometry": { "type": "Point", "coordinates": [ 634589.738173510530032, 5528970.939868345856667 ] } },
{ "type": "Feature", "properties": { "stop_code": 51083, "stop_name": "Southbound St Joseph at Hebert", "stop_lat": 49.897812525039811, "stop_lon": -97.126034350207917 }, "geometry": { "type": "Point", "coordinates": [ 634582.738166224211454, 5528951.940122365020216 ] } },
{ "type": "Feature", "properties": { "stop_code": 51084, "stop_name": "Southbound Tache at St. Mary's", "stop_lat": 49.877544619752307, "stop_lon": -97.123130517046803 }, "geometry": { "type": "Point", "coordinates": [ 634847.738344803918153, 5526703.932905001565814 ] } },
{ "type": "Feature", "properties": { "stop_code": 51085, "stop_name": "Westbound Highfield at Ferndale", "stop_lat": 49.875433169794157, "stop_lon": -97.127165310167243 }, "geometry": { "type": "Point", "coordinates": [ 634563.738066191202961, 5526461.942792734131217 ] } },
{ "type": "Feature", "properties": { "stop_code": 51086, "stop_name": "Northbound Ferndale at Walmer", "stop_lat": 49.878614752233801, "stop_lon": -97.127000447699885 }, "geometry": { "type": "Point", "coordinates": [ 634566.738080673036166, 5526815.942403267137706 ] } },
{ "type": "Feature", "properties": { "stop_code": 51087, "stop_name": "Eastbound Carriere at St. Mary's", "stop_lat": 49.871714856108746, "stop_lon": -97.113113109790675 }, "geometry": { "type": "Point", "coordinates": [ 635583.739036843762733, 5526073.90802803542465 ] } },
{ "type": "Feature", "properties": { "stop_code": 51088, "stop_name": "Southbound St Anne's at Compark", "stop_lat": 49.824304470324698, "stop_lon": -97.083729835113473 },