,stop_code,stop_name,stop_lat,stop_lon,stop_change
0,10001,Southbound Osborne at Mulvey,49.87126079164335,-97.1395184825284,Unchanged
1,10002,Southbound Osborne at Glasgow,49.86881850124874,-97.13755263735648,Unchanged
2,10003,Southbound Osborne at Brandon,49.86787982449569,-97.13679549876352,Unchanged
3,10004,Southbound Osborne at Hethrington,49.866522026651005,-97.1357066180771,Removed
4,10005,Southbound Osborne at Morley,49.865163994792965,-97.1346038905436,Unchanged
5,10006,Southbound Osborne at Maplewood,49.86325019276681,-97.13306344112284,Unchanged
6,10007,Southbound Osborne at Ashland,49.86106287002816,-97.13129711504052,Unchanged
7,10008,Southbound Osborne at Jubilee,49.859814917782366,-97.13032952377256,Unchanged
8,10009,Southbound Osborne at Montague,49.857798129847104,-97.12854293933007,Unchanged
9,10010,Northbound Eccles at Clare,49.863344479060856,-97.1177808338334,Unchanged
10,10011,Northbound Eccles at Balfour,49.864088900118915,-97.11875381623238,Removed
11,10012,Southbound Eccles at Balfour,49.86411026941578,-97.11896171866242,Removed
12,10013,Southbound Eccles at Ashland,49.86476677227488,-97.1195067610404,Unchanged
13,10014,Northbound Eccles at Ashland,49.86512883405248,-97.1196457748323,Unchanged
14,10017,Northbound Eccles at Oakwood,49.866541392065265,-97.12077379976031,Unchanged
15,10018,Southbound Eccles at Oakwood,49.86665332932752,-97.12101994777562,Unchanged
16,10021,Northbound Eccles at Bartlet,49.86819059799425,-97.12207362695938,Unchanged
17,10022,Southbound Eccles at Bartlet,49.86828545625278,-97.12237611534658,Unchanged
18,10023,Northbound Eccles at Morley,49.86896507712801,-97.122683765846,Removed
19,10024,Eastbound Morley at Eccles,49.86884576657141,-97.12309198079828,Removed
20,10025,Westbound Morley at Mabel,49.86838896714752,-97.1248771124813,Unchanged
21,10026,Eastbound Morley at Mabel,49.86816806156839,-97.12512225063858,Unchanged
22,10027,Westbound Morley at Fisher,49.867737298197554,-97.12685066430342,Removed
23,10028,Eastbound Morley at Fisher,49.86743885884135,-97.12730753574589,Removed
24,10029,Westbound Morley at Casey,49.8668532204428,-97.12947329217964,Unchanged
25,10030,Eastbound Morley at Casey,49.86676961806647,-97.12930952663837,Unchanged
26,10031,Eastbound Morley at Hay,49.86626350639666,-97.130832018601,Removed
27,10032,Westbound Morley at Hay,49.86608977178946,-97.13177110064656,Removed
28,10033,Westbound Morley at Osborne,49.86531795958643,-97.13411090553032,Removed
29,10034,Eastbound Morley at Osborne,49.865225598472506,-97.13396139049556,Removed
30,10035,Westbound Morley at Nassau,49.864056527892096,-97.13788885364536,Unchanged
31,10036,Eastbound Morley at Nassau,49.86376658562313,-97.13831746375344,Unchanged
32,10037,Westbound Morley at Daly,49.86308699048547,-97.1408065758905,Unchanged
33,10038,Northbound Daly at Morley (95 to Riverview via Ft Rouge Station),49.86282651776286,-97.14083049052864,Removed
34,10039,Southbound Daly at Kylemore,49.86137098968443,-97.13981493409268,Unchanged
35,10040,Northbound Daly at Kylemore,49.86110425861084,-97.13944948419524,Unchanged
36,10041,Eastbound Rathgar at Daly,49.859879047722984,-97.13877300818372,Unchanged
37,10042,Southbound Daly at Beresford,49.8593934337199,-97.13822119004028,Unchanged
38,10043,Westbound Beresford at Cockburn,49.857908237494435,-97.1420767146433,Unchanged
39,10044,Northbound Cockburn at Rathgar,49.85851248257484,-97.14273531657744,Removed
40,10045,Southbound Cockburn at Rosedale,49.85699426711564,-97.1417361082822,Removed
41,10046,Northbound Cockburn at Rosedale,49.857336985691546,-97.1417925281746,Removed
42,10047,Southbound Cockburn at Jubilee,49.85621067256511,-97.14111224788108,Removed
43,10048,Northbound Cockburn at Jubilee,49.856343728884,-97.14099583595284,Removed
44,10049,Westbound Jubilee at Riverdale,49.85532090632452,-97.14340028869884,Removed
45,10050,Eastbound Jubilee at Riverdale,49.85544147094654,-97.14250523719168,Removed
46,10051,Westbound Jubilee at Lilac,49.85477099142812,-97.14500742201072,Removed
47,10052,Eastbound Jubilee at Lilac,49.85465122999685,-97.14483114215784,Removed
48,10053,Eastbound Jubilee at Riverside,49.85419617138107,-97.14618418007232,Removed
49,10054,Westbound Jubilee at Riverside,49.85426444286292,-97.14651547081624,Removed
50,10055,Westbound Jubilee at Riverside West,49.85370727385865,-97.14823410995984,Removed
51,10056,Eastbound Jubilee at Riverside West,49.853294772790775,-97.14887593322446,Removed
52,10057,Northbound Osborne at Wavell,49.85808421877715,-97.128434489488,Unchanged
53,10058,Northbound Osborne at Jubilee,49.860128650723894,-97.13026175549768,Unchanged
54,10059,Northbound Osborne at Baltimore,49.86177820225123,-97.13158955493624,Unchanged
55,10060,Northbound Osborne at Maplewood,49.86331874363638,-97.13285206958416,Unchanged
56,10061,Northbound Osborne at Morley,49.86508647491589,-97.13425898259815,Unchanged
57,10062,Northbound Osborne at Hethrington,49.86663575367936,-97.13550741262756,Removed
58,10063,Northbound Osborne at Brandon,49.868185019459986,-97.1367559215614,Unchanged
59,10064,Northbound Osborne at Glasgow,49.86910549368015,-97.13749984727306,Unchanged
60,10065,Northbound Osborne at Mulvey,49.87193947531293,-97.13977075612964,Unchanged
61,10066,Northbound Osborne at Osborne Junction,49.875128246779894,-97.14229276290868,Unchanged
62,10067,Southbound Osborne at Osborne Junction,49.87466012253285,-97.14226897185502,Unchanged
63,10068,Southbound Pembina at Osborne Junction,49.87456972006579,-97.142801343363,Unchanged
64,10070,Southbound Pembina at Warsaw,49.8718722879166,-97.14399040241452,Unchanged
65,10071,Northbound Pembina at Nassau,49.87101605281816,-97.1438840520329,Unchanged
66,10072,Southbound Pembina at Fleet,49.869597348869625,-97.14516313949728,Unchanged
67,10073,Northbound Pembina at Daly,49.868433835110814,-97.14552779552844,Unchanged
68,10075,Southbound Pembina at Scotland,49.8657527058665,-97.14717514414842,Unchanged
69,10076,Northbound Pembina at Scotland,49.8659332479856,-97.14665334451614,Unchanged
70,10077,Northbound Pembina at Grant,49.8643694281962,-97.14729764710935,Unchanged
71,10078,Southbound Pembina at Grant,49.8642333855791,-97.1477898943185,Unchanged
72,10079,Southbound Pembina at Arbuthnot,49.86256791196633,-97.14882764298224,Removed
73,10080,Northbound Pembina at Arbuthnot,49.86264058739672,-97.14831000850648,Removed
74,10081,Southbound Pembina at Ebby,49.86088533775143,-97.14992162993975,Unchanged
75,10082,Northbound Pembina at Jackson,49.85965643356954,-97.1501355412721,Unchanged
76,10083,Northbound Pembina at Taylor,49.858382256498274,-97.15089380848178,Removed
77,10085,Northbound Pembina at Stafford,49.85652863546824,-97.15198023704131,Unchanged
78,10086,Southbound Pembina at Stafford,49.85689310303675,-97.15227242676562,Unchanged
79,10087,Northbound Stafford at Stafford Loop,49.8573982958364,-97.15236446419968,Unchanged
80,10088,Southbound Stafford at Taylor,49.85809071169907,-97.15347897808635,Removed
81,10089,Northbound Stafford at Ebby,49.85930729462343,-97.15418395854036,Unchanged
82,10090,Southbound Stafford at Ebby,49.85936655401476,-97.15451563846484,Unchanged
83,10091,Northbound Stafford at Carter,49.86068334625883,-97.1553003325384,Removed
84,10092,Southbound Stafford at Carter,49.86061497536657,-97.15552556781051,Removed
85,10093,Northbound Stafford at Grant,49.862086577811525,-97.1564296490461,Removed
86,10094,Southbound Stafford at Grant,49.86224648824648,-97.15686883921958,Unchanged
87,10095,Northbound Stafford at Lorette,49.863408228171195,-97.15752038775958,Removed
88,10096,Southbound Stafford at Dudley,49.863385465150394,-97.15778564341193,Removed
89,10097,Northbound Stafford at Fleet,49.86508510920402,-97.15888990766324,Unchanged
90,10098,Southbound Stafford at Fleet,49.865217157104595,-97.15927452879126,Unchanged
91,10099,Northbound Stafford at Warsaw,49.8664788751777,-97.15999195447144,Unchanged
92,10100,Southbound Stafford at Warsaw,49.86650149684253,-97.16028333374211,Unchanged
93,10101,Northbound Stafford at Corydon,49.86798183214363,-97.16117341609116,Unchanged
94,10102,Southbound Stafford at Corydon,49.86817768362978,-97.16161131012193,Unchanged
95,10103,Northbound Stafford at Dorchester,49.86955801927465,-97.1624356724031,Removed
96,10104,Southbound Stafford at Dorchester,49.86972667652312,-97.1628607003537,Removed
97,10105,Northbound Stafford at Grosvenor,49.87045048177888,-97.16312549874168,Removed
98,10106,Northbound Stafford at Harvard,49.872392629447205,-97.16477762196722,Removed
99,10107,Southbound Stafford at Harvard,49.872388491041306,-97.16508397094128,Removed
100,10108,Northbound Stafford at Kingsway,49.873368409988906,-97.1656174721763,Unchanged
101,10109,Southbound Stafford at Kingsway,49.87344605767615,-97.16597640125816,Unchanged
102,10110,Southbound Stafford at Academy,49.87458562578229,-97.16693535697904,Removed
103,10111,Northbound Stafford at Academy,49.87477220526549,-97.16678910690614,Removed
104,10112,Eastbound Academy at Stafford,49.87480688343775,-97.1672749417157,Removed
105,10113,Westbound Academy at Stafford,49.87490973342276,-97.16752158170203,Removed
106,10114,Eastbound Academy at Wellington Crescent,49.87692410978963,-97.16294944695169,Unchanged
107,10115,Westbound Academy at Wellington Crescent,49.877233288611016,-97.16316042060242,Unchanged
108,10116,Westbound Grosvenor at Arbuthnot,49.87240623915281,-97.15770684705406,Removed
109,10117,Eastbound Grosvenor at Arbuthnot,49.87253678672985,-97.15686680669614,Unchanged
110,10118,Eastbound Grosvenor at Lilac,49.871833949164035,-97.1590508032336,Unchanged
111,10119,Westbound Grosvenor at Ruskin,49.87181427959084,-97.15951083411672,Unchanged
112,10120,Westbound Grosvenor at Wentworth,49.871264587915185,-97.16114616124996,Removed
113,10121,Eastbound Grosvenor at Wentworth,49.87109533198359,-97.16125001191452,Removed
114,10122,Westbound Grosvenor at Stafford,49.87048385086711,-97.1635278337842,Removed
115,10123,Eastbound Grosvenor at Stafford,49.870391747814246,-97.16339215480494,Removed
116,10124,Westbound Grosvenor at Harrow,49.869874260178584,-97.1653601786066,Removed
117,10125,Westbound Corydon at Harrow,49.86747977080107,-97.16354435612362,Unchanged
118,10126,Eastbound Corydon at Stafford,49.867951838669114,-97.1615503020115,Unchanged
119,10127,Westbound Corydon at Stafford,49.86823530895113,-97.16127512305748,Unchanged
120,10128,Eastbound Corydon at Wentworth,49.86867336907407,-97.15940755873564,Removed
121,10129,Westbound Corydon at Wentworth,49.86890466592027,-97.15924568118638,Removed
122,10130,Eastbound Corydon at Lilac,49.86937732255068,-97.15729325371504,Unchanged
123,10131,Westbound Portage at Dominion,49.8843339971199,-97.17819036952868,Unchanged
124,10132,Southbound Vaughan at Portage,49.89152984229601,-97.14982213350824,Removed
125,10134,Southbound Vaughan at Graham (The Bay),49.8907489587995,-97.14936468639172,Removed
126,10135,Southbound Kennedy at Ellice,49.893920832256754,-97.1497167657392,Removed
127,10138,Southbound Kennedy at Portage South,49.891388282812976,-97.1482820594645,Removed
128,10140,Westbound Corydon at Lilac,49.869643245963175,-97.15704654337084,Unchanged
129,10141,Eastbound Corydon at Arbuthnot,49.870115421381186,-97.15506624798056,Unchanged
130,10142,Westbound Corydon at Arbuthnot,49.870158029691645,-97.15548214020866,Unchanged
131,10143,Eastbound Corydon at Cockburn,49.87078511098805,-97.1530644615138,Unchanged
132,10144,Westbound Corydon at Cockburn,49.870913628082725,-97.15322656787896,Unchanged
133,10145,Eastbound Corydon at Hugo,49.87154876201081,-97.15075284343358,Unchanged
134,10146,Westbound Corydon at Hugo,49.87158306287575,-97.1512108143922,Unchanged
135,10147,Eastbound Corydon at Daly,49.87225299871164,-97.1486661087291,Unchanged
136,10148,Westbound Corydon at Daly,49.87246741296988,-97.14857440221664,Unchanged
137,10149,Westbound Corydon at Nassau,49.87324850568172,-97.14623412710976,Unchanged
138,10150,Eastbound Corydon at Nassau,49.87343766115527,-97.14512735006932,Unchanged
139,10153,Southbound Donald at Stradbrook,49.87979056149556,-97.13799350301632,New
140,10156,Northbound Harkness at River,49.88298668557666,-97.1353786903807,Removed
141,10157,Eastbound Mayfair at Queen Elizabeth,49.88451542040469,-97.13312021242491,Unchanged
142,10158,Northbound Queen Elizabeth at Mayfair,49.88515638791982,-97.13214881973482,Unchanged
143,10159,Southbound Queen Elizabeth at Stradbrook,49.88390505936916,-97.13208574909751,Unchanged
144,10161,Westbound Stradbrook at Harkness,49.88178236777364,-97.13432536599645,Unchanged
145,10162,Westbound Portage at Sherburn,49.88454275718247,-97.17659548192252,Removed
146,10166,Southbound Donald at River,49.88194807260272,-97.1373536715925,New
147,10169,Westbound River at Bryce,49.88055539277718,-97.1424881452546,Unchanged
148,10170,Westbound River at Osborne,49.879430849269994,-97.14584423371304,Unchanged
149,10171,Northbound Osborne at River,49.87946828908375,-97.14649703403526,Unchanged
150,10172,Southbound Osborne at River,49.87917208027641,-97.14653621683205,Unchanged
151,10173,Westbound River at Norquay,49.87846922155663,-97.14870674903784,Unchanged
152,10176,Westbound Wellington at Stradbrook,49.87608260866625,-97.1507745104009,Unchanged
153,10177,Westbound Wellington at Wardlaw,49.87423831504161,-97.15131818694168,Removed
154,10178,Westbound Wellington at Hugo,49.87292107703529,-97.15276028727055,Unchanged
155,10179,Westbound Wellington at Dorchester,49.87261617524145,-97.1556390090964,Unchanged
156,10180,Eastbound Wellington at Cockburn,49.8723402995605,-97.15413247632144,Removed
157,10181,Eastbound Wellington at Hugo,49.87309809067663,-97.15201587669505,Unchanged
158,10182,Eastbound Wellington at Wardlaw,49.87439457261732,-97.1509642592722,Removed
159,10184,Eastbound Stradbrook at Nassau,49.876449335119055,-97.14839426866251,Unchanged
160,10185,Southbound Osborne at Wardlaw,49.876983910800725,-97.14414239237144,Unchanged
161,10186,Northbound Osborne at Stradbrook,49.87766570664935,-97.1445895101974,Unchanged
162,10187,Eastbound Stradbrook at Osborne,49.87802988453734,-97.14374038200764,Unchanged
163,10188,Eastbound Stradbrook at Scott,49.87908558040799,-97.14058186417778,Unchanged
164,10190,Northbound Sherbrook at West Gate,49.87856252584976,-97.16020078057518,Removed
165,10194,Southbound Maryland at Westminster,49.88199448761594,-97.16107260049073,Unchanged
166,10195,Southbound Maryland at Alloway,49.8835663402238,-97.1609293459362,Unchanged
167,10196,Southbound Maryland at Broadway,49.88534583685297,-97.16083387489547,Unchanged
168,10197,Southbound Maryland at Portage South,49.88730424022192,-97.16067590613268,Unchanged
169,10198,Eastbound Broadway at Maryland,49.885720671208055,-97.1600817803912,Unchanged
170,10199,Westbound Broadway at Sherbrook,49.88581887004547,-97.15833783477328,Unchanged
171,10200,Northbound Sherbrook at Broadway North,49.88646908037116,-97.15906486982296,Removed
172,10201,Northbound Sherbrook at Broadway South,49.88522918233358,-97.15915380410776,Unchanged
173,10202,Northbound Sherbrook at Sara,49.88405221099567,-97.15924033938371,Unchanged
174,10205,Northbound Sherbrook at Westminster,49.88210257745705,-97.15938409791627,Unchanged
175,10206,Northbound Sherbrook at Misericordia Health Ctr,49.87995495083067,-97.15952145163256,Unchanged
176,10207,Eastbound Broadway at Young,49.88556214264012,-97.15577210502128,Unchanged
177,10208,Westbound Broadway at Young,49.88570787131376,-97.15532105770572,Unchanged
178,10211,Eastbound Broadway at Balmoral,49.88545396320676,-97.152936222242,Unchanged
179,10214,Westbound Broadway at Balmoral,49.885610890696434,-97.1526239561492,Unchanged
180,10226,Northbound Arlington at Wolseley,49.87964894884171,-97.16972246306644,New
181,10228,Eastbound Wolseley at Lenore,49.87936880440004,-97.17134775613164,Removed
182,10229,Westbound Wolseley at Ruby,49.879556549236696,-97.17355392298204,Removed
183,10230,Eastbound Wolseley at Aubrey,49.87946929830387,-97.17486568108222,Removed
184,10231,Southbound Aubrey at Wolseley,49.87918952386864,-97.1753773424034,Removed
185,10232,Northbound Aubrey at Wolseley,49.87890558107368,-97.17505397382828,Removed
186,10233,Northbound Valour at Portage,49.88300167840553,-97.18901526314784,Unchanged
187,10234,Southbound Valour at Portage,49.88277998189512,-97.18921845002464,Unchanged
188,10235,Northbound Valour at Riddle,49.88395415469383,-97.18895177776083,Unchanged
189,10236,Southbound Valour at Riddle,49.88414598605108,-97.18913949521662,Unchanged
190,10237,Northbound Valour at Wolever South,49.88545456888347,-97.18883993898233,Removed
191,10238,Southbound Valour at Wolever South,49.88561921359789,-97.18901475748962,Removed
192,10239,Northbound Valour at Wolever,49.88705365180174,-97.18871047664672,Unchanged
193,10240,Southbound Valour at Wolever,49.887263463027615,-97.1888975318869,Unchanged
194,10241,Northbound Valour at Felix,49.889164930461305,-97.1885479063302,Removed
195,10242,Southbound Valour at Felix,49.88929383446625,-97.18873799752916,Removed
196,10243,Northbound Valour at St. Matthews,49.890521507208376,-97.1884414242625,Unchanged
197,10244,Southbound Valour at St. Matthews,49.890704349729646,-97.18862950102546,Unchanged
198,10245,Southbound Valour at Dyson,49.89206092619568,-97.18852301670655,Removed
199,10246,Northbound Valour at Ellice,49.89373786542604,-97.18819566968502,Unchanged
200,10247,Southbound Valour at Ellice,49.893938687804685,-97.1883830843936,Unchanged
201,10248,Southbound Valour at Dauphin,49.89507052040982,-97.1882850006918,Removed
202,10249,Northbound Valour at Dauphin,49.89517534798836,-97.18808613381022,Removed
203,10250,Southbound Valour at Sargent,49.89756857032963,-97.18812181266208,Unchanged
204,10251,Northbound Valour at Sargent,49.89775365133346,-97.18787815320964,Unchanged
205,10252,Southbound Valour at Wellington,49.900596139807,-97.1878830618363,Unchanged
206,10253,Northbound Valour at Wellington,49.90071872787255,-97.1876695795604,Unchanged
207,10254,Westbound Wellington at Spruce,49.900877381282015,-97.18631281308296,Removed
208,10255,Eastbound Wellington at Spruce,49.90074934527326,-97.1861783548698,Removed
209,10256,Westbound Wellington at Erin,49.90079931249163,-97.183628027701,Unchanged
210,10257,Eastbound Wellington at Erin,49.90067105507162,-97.18347965915264,Unchanged
211,10258,Westbound Wellington at Wall,49.90073651181336,-97.18134652891314,Unchanged
212,10259,Eastbound Wellington at Wall,49.90061830722169,-97.18183838114584,Unchanged
213,10260,Eastbound Wellington at Downing,49.90051361747519,-97.17861150834516,Removed
214,10261,Westbound Wellington at Downing,49.90063312228658,-97.17820315577411,Removed
215,10262,Eastbound Wellington at Dominion,49.90045466370626,-97.1765805493447,Unchanged
216,10263,Westbound Wellington at Sherburn,49.900542146837694,-97.17528214131642,Unchanged
217,10264,Eastbound Wellington at Ingersoll,49.900366501344955,-97.17384047826832,Removed
218,10265,Westbound Wellington at Ingersoll,49.900487526157946,-97.17352953885953,Removed
219,10266,Westbound Wellington at Banning,49.90043485682806,-97.1719021992824,Unchanged
220,10267,Eastbound Wellington at Banning,49.90028792324874,-97.17114183157204,Unchanged
221,10268,Eastbound Wellington at Arlington,49.90021500618733,-97.16880505008034,Unchanged
222,10269,Southbound Arlington at St. Paul,49.887981239625574,-97.16933769236952,Unchanged
223,10270,Southbound Arlington at Portage,49.88586977699042,-97.16948718146293,Unchanged
224,10271,Northbound Burnell at Portage,49.88560366097396,-97.17086156664428,Removed
225,10272,Northbound Burnell at St. Paul,49.88788614906813,-97.1707195952788,Removed
226,10273,Northbound Burnell at St. Matthews,49.88995244509616,-97.17055793632548,Removed
227,10274,Southbound Arlington at St. Matthews,49.89013764929936,-97.16918648691274,Unchanged
228,10275,Northbound Arlington at St. Matthews,49.89068161473361,-97.16888744123123,Unchanged
229,10276,Southbound Arlington at Ellice,49.89335417244128,-97.16895337135236,Unchanged
230,10277,Northbound Arlington at Ellice,49.89352978267415,-97.16868217045956,Unchanged
231,10278,Northbound Arlington at Sargent,49.89669258495401,-97.16846495775908,Unchanged
232,10279,Southbound Arlington at Sargent,49.896947376121986,-97.1686502587122,Unchanged
233,10280,Northbound Arlington at Wellington,49.90012419211485,-97.16818182736726,Unchanged
234,10281,Southbound Arlington at Wellington,49.90037087485106,-97.16842315005972,Unchanged
235,10282,Southbound Arlington at Adele,49.90197014309667,-97.1683068781674,Unchanged
236,10283,Northbound Arlington at Adele,49.90249612506582,-97.16800842697964,Unchanged
237,10284,Southbound Arlington at Notre Dame,49.90380247955726,-97.16813998814582,Unchanged
238,10285,Northbound Arlington at Notre Dame,49.90397830714266,-97.16788264330256,Unchanged
239,10286,Southbound Arlington at Winnipeg,49.90450036435798,-97.1679046456694,Removed
240,10287,Northbound Arlington at McDermot,49.905846731329234,-97.1665862371348,Unchanged
241,10288,Southbound Arlington at Bannatyne,49.90601995794773,-97.16673287172851,Unchanged
242,10289,Southbound Arlington at William,49.906935303646115,-97.16602963516232,Unchanged
243,10290,Northbound Arlington at William,49.907188503829126,-97.16554648511212,Unchanged
244,10291,Northbound Arlington at Ross,49.9088236114516,-97.164286613919,Unchanged
245,10292,Southbound Arlington at Ross,49.908854552568904,-97.16453614899436,Unchanged
246,10293,Southbound Arlington at Logan,49.910640703664654,-97.1631590296608,Unchanged
247,10294,Northbound Arlington at Logan,49.91064527596594,-97.16288027913296,Unchanged
248,10295,Southbound McPhillips at Notre Dame,49.90546706334055,-97.17158661990268,Unchanged
249,10296,Eastbound Dublin at Notre Dame,49.911063160951414,-97.18998405229424,Removed
250,10297,Eastbound Ellice at Colony,49.89331913155378,-97.15146633855,Removed
251,10298,Northbound McPhillips at Elgin,49.90990680387381,-97.17077801104226,Removed
252,10299,Southbound McPhillips at Elgin,49.91064001937027,-97.17107063318852,Removed
253,10300,Northbound McPhillips at Pacific,49.91175668154072,-97.1705826571174,Unchanged
254,10301,Southbound McPhillips at Pacific,49.911734991187544,-97.17091777735286,Unchanged
255,10302,Southbound McPhillips at Logan,49.91384578666582,-97.17072647606416,Unchanged
256,10303,Northbound McPhillips at Logan,49.914342604659026,-97.17028977922644,Unchanged
257,10304,Southbound McPhillips at Henry,49.915111999402896,-97.17059497993472,Removed
258,10305,Westbound Logan at Wiens,49.92109187192049,-97.19339794659015,Removed
259,10306,Eastbound Logan at Wiens,49.921148331529565,-97.19413422296684,Removed
260,10307,Eastbound Logan at McKelvey,49.92049566949706,-97.19208279504537,Unchanged
261,10309,Eastbound Logan at Smart,49.91965381807246,-97.18943945645692,Removed
262,10310,Westbound Logan at Lock,49.920230765361275,-97.19067168446658,Unchanged
263,10311,Eastbound Logan at Cecil,49.91879349167019,-97.18676903968812,Unchanged
264,10312,Westbound Logan at Cecil,49.91885995778672,-97.1864182667935,Unchanged
265,10313,Eastbound Logan at Quelch,49.91788553591753,-97.1839333355115,Unchanged
266,10314,Westbound Logan at Quelch,49.91789543453848,-97.1834175201827,Unchanged
267,10315,Eastbound Logan at Vine,49.91699592827307,-97.18112490754775,Removed
268,10316,Westbound Logan at Weston,49.91689159397101,-97.180209412778,Unchanged
269,10317,Eastbound Logan at Electa,49.916267837208416,-97.17886771247636,Unchanged
270,10318,Westbound Logan at Blaine,49.9162485540895,-97.17821370851328,Removed
271,10319,Eastbound Logan at Winks,49.915331405635385,-97.1759497950007,Unchanged
272,10320,Westbound Logan at Winks,49.91538819133235,-97.17555760689962,Unchanged
273,10321,Eastbound Logan at Yeomans,49.91447055241411,-97.17326594177062,Unchanged
274,10322,Westbound Logan at Yeomans,49.91454618699146,-97.17292876481136,Unchanged
275,10323,Westbound Logan at McPhillips,49.91390104386392,-97.17080796373158,Unchanged
276,10324,Eastbound Logan at McPhillips,49.91347542376958,-97.17005793783272,Unchanged
277,10325,Eastbound Logan at Maude,49.91242715148226,-97.16690779700316,Unchanged
278,10326,Westbound Logan at Maude,49.91274861831329,-97.16732742042144,Unchanged
279,10327,Eastbound Wellington at St James,49.90117634165538,-97.20028337768906,Unchanged
280,10328,Westbound Logan at Trinity,49.91178338587166,-97.16431352335148,Removed
281,10329,Westbound Logan at Arlington,49.91116792794032,-97.16237290425114,Unchanged
282,10330,Eastbound Logan at Arlington,49.91096028438673,-97.16232508089888,Unchanged
283,10331,Eastbound Logan at Beacon,49.91036343623558,-97.16042559771378,Unchanged
284,10332,Westbound Logan at Tecumseh,49.91024051798084,-97.1594831210584,Unchanged
285,10333,Eastbound Logan at Nora,49.909493016703486,-97.15772872650253,Unchanged
286,10334,Westbound Logan at Nora,49.909587914353374,-97.15747439679588,Unchanged
287,10335,Eastbound Logan at Lulu,49.90884016135591,-97.15570613765506,Unchanged
288,10336,Westbound Logan at Lulu,49.90893483278459,-97.15543788766963,Unchanged
289,10337,Westbound Logan at Chambers,49.908291149388795,-97.1534289303624,Unchanged
290,10338,Eastbound Logan at Sherbrook,49.907893497751765,-97.15274771373365,Unchanged
291,10339,Eastbound Logan at Gunnell,49.90715498161741,-97.15043604876529,Unchanged
292,10340,Westbound Logan at Gunnell,49.907211903561915,-97.15005781898462,Unchanged
293,10341,Eastbound Logan at Isabel,49.90608397102869,-97.14702298357616,Unchanged
294,10342,Westbound Logan at Isabel,49.906450678491616,-97.1474546160045,Unchanged
295,10343,Eastbound Logan at Laura,49.90523278389173,-97.14442334000178,Unchanged
296,10344,Westbound Logan at Laura,49.90531777030264,-97.14411367753918,Unchanged
297,10345,Eastbound Logan at Fountain,49.90448533756238,-97.14212619667832,Unchanged
298,10346,Westbound Logan at Fountain,49.904598626575954,-97.14189901013768,Unchanged
299,10347,Eastbound Logan at Stanley,49.90377469858283,-97.13988341530376,Unchanged
300,10348,Westbound Logan at Princess,49.903452989965075,-97.13833598801062,Unchanged
301,10349,Eastbound Logan at Main,49.90258203711647,-97.136196973655,Removed
302,10351,Eastbound Higgins at Point Douglas,49.902326310841474,-97.11540064673056,Unchanged
303,10352,Westbound Higgins at Boyle,49.90228770761403,-97.11579209300088,Unchanged
304,10353,Westbound Higgins at Maple,49.90415553943777,-97.13113653216558,Unchanged
305,10354,Eastbound Higgins at McArthur,49.90176827525245,-97.1170378489802,Removed
306,10355,Eastbound Higgins at Acores,49.90215918065647,-97.12005859640672,Unchanged
307,10356,Westbound Higgins at Acores,49.90226903502249,-97.11962260497116,Unchanged
308,10357,Westbound Higgins at Annabella,49.902631058973,-97.1219760487171,Unchanged
309,10358,Eastbound Higgins at Annabella,49.902490615714015,-97.12219040085068,Unchanged
310,10359,Westbound Higgins at Waterfront,49.9036763296592,-97.1265313278086,Unchanged
311,10360,Eastbound Higgins at Waterfront,49.90356599881891,-97.12693948078116,Removed
312,10363,Westbound Higgins at Main,49.90444361997203,-97.13338158825977,Removed
313,10365,Northbound St James at Portage,49.881352025435014,-97.20148003285902,Removed
314,10366,Northbound St James at Ness North,49.88492736941332,-97.2011801008174,Removed
315,10367,Northbound St James at Maroons,49.88777496997787,-97.2009350205312,Removed
316,10368,Eastbound Higgins at Maple,49.90404541688423,-97.13155859745056,Unchanged
317,10369,Northbound St James at St. Matthews,49.89079445545319,-97.20075312995624,Unchanged
318,10370,Northbound St James at Ellice,49.89391152864786,-97.20048403793366,Unchanged
319,10371,Northbound St James at Sargent,49.89753224247507,-97.200210091362,Removed
320,10372,Northbound St James at Wellington,49.90103543701407,-97.19989869234224,Unchanged
321,10373,Northbound St James at Saskatchewan,49.9059945348707,-97.19950518033548,Removed
322,10374,Northbound St James at Saskatchewan North,49.90836631275096,-97.19931936654712,Unchanged
323,10375,Northbound St James at Dublin,49.91128624678892,-97.1990991843692,Removed
324,10376,Northbound St James at Bangor,49.91390973405469,-97.1989039454874,Removed
325,10377,Northbound St James at Notre Dame,49.91590437172264,-97.19875997556896,Removed
326,10378,Eastbound Taylor at Stafford,49.8578376720112,-97.1534051423684,Unchanged
327,10379,Westbound Taylor at Stafford,49.85795153652558,-97.15377647107316,Unchanged
328,10380,Westbound Polo Park West Access at Polo Park,49.88314266308972,-97.19978474654792,Removed
329,10381,Westbound Polo Park West Access at Polo Park (FX4),49.88485754826512,-97.19958173941802,Unchanged
330,10383,Southbound Empress at Eastway,49.882113407490856,-97.19664914039193,Unchanged
331,10384,Southbound Empress at Westway,49.8838208137067,-97.1965437535458,Removed
332,10385,Westbound Wellington at St James,49.90130005056893,-97.19898364708482,Removed
333,10386,Westbound Westway at Empress,49.883782138065975,-97.1957934576361,Unchanged
334,10387,Northbound Keewatin at Pacific,49.919883734132355,-97.19494770380264,Unchanged
335,10388,Eastbound Wellington at Empress,49.901049953022145,-97.19620775444072,Removed
336,10389,Northbound Keewatin at William,49.916915611482416,-97.19496103024386,Unchanged
337,10390,Eastbound Notre Dame at Keewatin,49.91636996660945,-97.19573364990362,Unchanged
338,10391,Westbound Notre Dame at Worth,49.91540703808859,-97.19397259906992,Removed
339,10392,Eastbound Notre Dame at Worth,49.91545763191697,-97.1943328936699,Removed
340,10393,Eastbound Notre Dame at Bannatyne,49.91407759882925,-97.19293574291154,Unchanged
341,10394,Westbound Notre Dame at Bannatyne,49.91437382450404,-97.19289680992846,Unchanged
342,10395,Eastbound Notre Dame at Cecil,49.91283304718806,-97.1915753909278,Removed
343,10396,Westbound Notre Dame at Cecil,49.91302030881205,-97.19147087953698,Removed
344,10397,Westbound Wellington at Empress,49.90120135834323,-97.19553365602718,Removed
345,10398,Westbound Notre Dame at Winnipeg,49.9120602956381,-97.19047603073162,Removed
346,10399,Westbound Notre Dame at Flint,49.910699842236646,-97.18803369019298,Unchanged
347,10400,Eastbound Notre Dame at Flint,49.910151145925816,-97.1868842458726,Removed
348,10401,Westbound Notre Dame at Valour,49.91005650242055,-97.18601029078074,Removed
349,10402,Westbound Sargent at Maryland,49.89663445628582,-97.15969453327097,Unchanged
350,10403,Eastbound Notre Dame at Clifton,49.90936595716976,-97.18442049938916,Removed
351,10404,Eastbound Notre Dame at Erin,49.90876048033055,-97.182521133851,Removed
352,10405,Westbound Notre Dame at Erin,49.90918623862904,-97.18328511976274,Unchanged
353,10406,Westbound Notre Dame at Wall,49.90815389883492,-97.17998116434914,Removed
354,10407,Eastbound Notre Dame at Wall,49.90752158955683,-97.17866788450368,Unchanged
355,10408,Westbound Notre Dame at Myrtle,49.90722824223418,-97.17717472775604,Unchanged
356,10409,Eastbound Notre Dame at Dominion,49.906745656305226,-97.1762319087664,Removed
357,10410,Westbound Notre Dame at Garfield,49.906708161084616,-97.17556479390652,Removed
358,10411,Westbound Notre Dame at Ingersoll,49.90615933266801,-97.17384455962306,Unchanged
359,10412,Eastbound Notre Dame at Sherburn,49.90603655141466,-97.17404418144773,Unchanged
360,10413,Eastbound Notre Dame at Lipton,49.90550611942112,-97.17235114726112,Unchanged
361,10414,Westbound Notre Dame at McPhillips,49.90529689624983,-97.171063817131,Unchanged
362,10415,Eastbound Notre Dame at Burnell,49.90480637169611,-97.17019103189656,Removed
363,10417,Westbound Notre Dame at Arlington,49.9041530326716,-97.16755570350384,Removed
364,10418,Westbound Notre Dame at Tecumseh,49.90351943174057,-97.16560210887296,Unchanged
365,10419,Eastbound Notre Dame at Simcoe,49.903424736052905,-97.16587030925888,Unchanged
366,10420,Eastbound Notre Dame at Toronto,49.90272442743835,-97.16368254674155,Removed
367,10421,Westbound Notre Dame at Toronto,49.90280968689328,-97.163386851128,Removed
368,10422,Eastbound Notre Dame at McGee (HSC),49.901599870506935,-97.1602715395198,Unchanged
369,10423,Westbound Notre Dame at Pearl (HSC),49.90188075843554,-97.16040011763468,Unchanged
370,10424,Southbound Maryland at Notre Dame,49.90075521493799,-97.15976055568926,Unchanged
371,10425,Southbound Maryland at Sargent North,49.89832015005463,-97.15992282873752,Removed
372,10426,Southbound Maryland at Sargent,49.89628961430827,-97.16006969517244,Unchanged
373,10427,Southbound Maryland at Sargent South,49.894860936454855,-97.16016580854956,Removed
374,10428,Northbound Keewatin at Gallagher,49.92223091480222,-97.19491576684388,Unchanged
375,10429,Southbound Maryland at Ellice,49.89258768052097,-97.1603218802397,Unchanged
376,10430,Southbound Maryland at St. Matthews,49.88984740746848,-97.16052353603772,Removed
377,10431,Southbound Maryland at Portage North,49.88828388369751,-97.16062474415035,Removed
378,10432,Northbound Sherbrook at Portage North,49.88867940943957,-97.15891116104766,Unchanged
379,10433,Northbound Sherbrook at Sherbrook Pool,49.8901170769913,-97.15881468576832,Removed
380,10434,Northbound Sherbrook at Ellice,49.8927944188768,-97.15861532686752,Unchanged
381,10435,Northbound Sherbrook at Ellice North,49.894789216485734,-97.15848369872388,Removed
382,10436,Northbound Sherbrook at Sargent,49.89633453527812,-97.15836917036371,Unchanged
383,10437,Northbound Sherbrook at Sargent North,49.89858980689024,-97.1582136747314,Removed
384,10438,Northbound Sherbrook at Cumberland,49.89977576362003,-97.15812673657496,Unchanged
385,10439,Northbound Sherbrook at Notre Dame,49.90127258959453,-97.1577912091943,Unchanged
386,10441,Northbound Sherbrook at Bannatyne (HSC),49.903075754619586,-97.156357708099,Unchanged
387,10442,Southbound Sherbrook at Bannatyne (HSC),49.902911380260925,-97.15676784651704,Unchanged
388,10443,Northbound Sherbrook at William (HSC),49.90402655050044,-97.15562511277938,Removed
389,10444,Southbound Sherbrook at William (HSC),49.903933208418934,-97.15597684569109,Removed
390,10445,Northbound Sherbrook at Elgin,49.905174223534935,-97.1548292669022,Removed
391,10446,Southbound Sherbrook at Elgin,49.90514292353176,-97.15512293381371,Removed
392,10447,Northbound Sherbrook at Pacific,49.90649968338172,-97.15390124635826,Removed
393,10448,Southbound Sherbrook at Logan,49.90770782710487,-97.15294979921694,Removed
394,10449,Southbound Gunnell at Logan,49.90754562707741,-97.15011469076012,Removed
395,10450,Westbound Sargent at St. James,49.8978643328475,-97.19958502994716,Removed
396,10451,Westbound Sargent at Milt Stegall,49.897796759131296,-97.19755448186426,Removed
397,10452,Eastbound Sargent at Milt Stegall,49.89764620763942,-97.1982841944497,Removed
398,10453,Westbound Sargent at Sanford,49.89767948423477,-97.19349273404924,Unchanged
399,10454,Eastbound Sargent at Sanford,49.89752114321941,-97.1937214479478,Unchanged
400,10455,Eastbound Sargent at Strathcona,49.89741548240457,-97.19041124600562,Removed
401,10456,Westbound Sargent at Strathcona,49.897572946544,-97.19012685436086,Removed
402,10457,Eastbound Sargent at Valour,49.897344045476785,-97.1881441479297,Unchanged
403,10458,Westbound Sargent at Valour,49.89750106829758,-97.1878319157592,Unchanged
404,10459,Westbound Sargent at Clifton,49.89741252002775,-97.18505023386716,Removed
405,10460,Eastbound Sargent at Erin,49.89720387657845,-97.1837908930388,Unchanged
406,10461,Eastbound Sargent at Wall,49.897158157403666,-97.18202414383818,Unchanged
407,10462,Westbound Sargent at Erin,49.89737642708004,-97.18389581407816,Unchanged
408,10463,Eastbound Sargent at Minto,49.897087868865576,-97.179840574646,Removed
409,10464,Westbound Sargent at Minto,49.8972455254429,-97.17957006795568,Removed
410,10465,Eastbound Sargent at Dominion,49.89701534846349,-97.17751784648712,Unchanged
411,10466,Westbound Sargent at Dominion,49.89717212308522,-97.1771916660508,Unchanged
412,10467,Eastbound Sargent at Sherburn,49.896942781414424,-97.17519512653428,Unchanged
413,10468,Westbound Sargent at Sherburn,49.897100646336376,-97.17493852246,Unchanged
414,10469,Eastbound Sargent at Lipton,49.89687170509931,-97.17296983073332,Removed
415,10470,Westbound Sargent at Banning,49.897011348536594,-97.17212906227938,Unchanged
416,10471,Eastbound Sargent at Banning,49.896818369765754,-97.17130086392338,Unchanged
417,10472,Westbound Sargent at Alverstone,49.896936913113585,-97.1696950210386,Removed
418,10473,Eastbound Sargent at Arlington,49.89674237616633,-97.16876941866724,Unchanged
419,10474,Westbound Sargent at Arlington,49.89689780476032,-97.1683597131854,Unchanged
420,10475,Eastbound Sargent at Simcoe,49.89666764970668,-97.16632148156268,Unchanged
421,10476,Westbound Sargent at Simcoe,49.89683166659725,-97.16645451250724,Unchanged
422,10477,Eastbound Sargent at Toronto,49.89659640265673,-97.1640962160318,Removed
423,10478,Westbound Sargent at Beverley,49.896787888582445,-97.16482696514518,Removed
424,10479,Westbound Sargent at Wall,49.89731494490347,-97.18169797669567,Unchanged
425,10480,Eastbound Sargent at Agnes,49.89651384185304,-97.16116122317696,Unchanged
426,10481,Westbound Sargent at Agnes,49.89669083226204,-97.16154438991904,Unchanged
427,10482,Eastbound Sargent at Maryland,49.896480385705125,-97.1601877616249,Unchanged
428,10483,Eastbound Sargent at Sherbrook,49.896409242060614,-97.15797643322816,Unchanged
429,10484,Westbound Sargent at Sherbrook,49.89658491459498,-97.15827608901137,Unchanged
430,10485,Eastbound Sargent at Young,49.89634027296236,-97.15590427524135,Unchanged
431,10486,Westbound Sargent at Langside,49.89649809434959,-97.15564761260934,Unchanged
432,10487,Westbound Sargent at Balmoral,49.89632631193037,-97.15277174396154,Unchanged
433,10488,Eastbound Sargent at Balmoral,49.89615262406449,-97.15259735590534,Unchanged
434,10489,Eastbound Cumberland at Sherbrook,49.89976433837396,-97.15797398883818,Unchanged
435,10490,Eastbound Cumberland at Langside,49.8989379278924,-97.15522036684357,Removed
436,10491,Eastbound Cumberland at Balmoral,49.898136200239456,-97.15232664255494,Unchanged
437,10492,Southbound Emily at McDermot (HSC),49.90338408115736,-97.16103926975882,Removed
438,10493,Westbound Ellice at St. James,49.89427535033729,-97.2001641747746,Unchanged
439,10494,Eastbound Ellice at Milt Stegall,49.89404586469487,-97.1975549987724,Removed
440,10495,Westbound Ellice at Milt Stegall,49.89422381865234,-97.19800786250308,Removed
441,10496,Eastbound Ellice at Empress,49.89396145804243,-97.19502397755912,Unchanged
442,10497,Westbound Ellice at Empress,49.894137686563525,-97.19536550333248,Unchanged
443,10498,Eastbound Ellice at Strathcona West,49.89387838066558,-97.19200557592194,Unchanged
444,10499,Eastbound Ellice at Strathcona,49.89383097626657,-97.1906984954805,Removed
445,10500,Westbound Ellice at Strathcona,49.893988006428735,-97.1903862943996,Unchanged
446,10501,Eastbound Ellice at Valour,49.89375998229,-97.18845939626632,Unchanged
447,10502,Westbound Ellice at Valour,49.89391700632437,-97.18814718854104,Unchanged
448,10503,Southbound Empress at Sargent,49.89778200367454,-97.19545234319426,Removed
449,10504,Eastbound Ellice at Clifton,49.89367014295989,-97.18559443333538,Removed
450,10505,Westbound Ellice at Clifton,49.89382803164784,-97.18533788023603,Removed
451,10506,Westbound Ellice at Erin,49.89379259727521,-97.18422529292528,Unchanged
452,10507,Eastbound Ellice at Erin,49.89361349830052,-97.18370290677736,Unchanged
453,10508,Eastbound Ellice at Wall,49.89355398148664,-97.18163048166326,Unchanged
454,10509,Westbound Ellice at Wall,49.893730249056375,-97.1819719547534,Unchanged
455,10510,Eastbound Ellice at Minto,49.89350274131347,-97.18008685719803,Removed
456,10511,Westbound Ellice at Minto,49.89366105514093,-97.17985811873592,Removed
457,10512,Eastbound Ellice at Dominion,49.8934096270669,-97.17702711216184,Unchanged
458,10513,Westbound Ellice at Dominion,49.89357363201597,-97.17716017107058,Unchanged
459,10514,Eastbound Ellice at Ingersoll,49.893322357447005,-97.17434310093894,Unchanged
460,10515,Westbound Ellice at Ingersoll,49.89348022075346,-97.17408651365692,Unchanged
461,10516,Eastbound Ellice at Banning,49.89325148626065,-97.17213188875344,Unchanged
462,10517,Westbound Ellice at Banning,49.89340934457832,-97.1718752947684,Unchanged
463,10518,Westbound Ellice at Arlington,49.89334917575008,-97.16977506756854,Unchanged
464,10519,Eastbound Ellice at Arlington,49.893170672202075,-97.16929448782491,Unchanged
465,10520,Eastbound Ellice at Simcoe,49.89308234162235,-97.1665548469127,Removed
466,10521,Westbound Ellice at Simcoe,49.89324062817633,-97.16632606690652,Removed
467,10522,Eastbound Ellice at Toronto,49.893019869825565,-97.16431548921555,Unchanged
468,10523,Westbound Ellice at Toronto,49.89317793118541,-97.1640727868694,Unchanged
469,10524,Eastbound Ellice at Agnes,49.89294880691358,-97.16210431068936,Removed
470,10525,Westbound Ellice at McGee,49.89309168681943,-97.16147231226712,Unchanged
471,10526,Eastbound Ellice at McGee,49.892905853503606,-97.16053256076188,Unchanged
472,10527,Westbound Portage at Carlton (Portage Place),49.8929570895674,-97.14570181022124,Removed
473,10528,Westbound Ellice at Sherbrook,49.89300928306552,-97.1585514535098,Unchanged
474,10529,Eastbound Ellice at Sherbrook,49.89283073329671,-97.15807091978132,Unchanged
475,10530,Eastbound Ellice at Langside,49.89274701453272,-97.1556374610615,Unchanged
476,10531,Westbound Ellice at Langside,49.89292114123403,-97.15583967879851,Unchanged
477,10533,Westbound Ellice at Spence,49.892861125013106,-97.15376733111212,Unchanged
478,10534,Northbound Vaughan at Ellice,49.89344918434983,-97.1505980871223,Removed
479,10535,Westbound Ellice at Balmoral,49.89333767410557,-97.15206435641076,Unchanged
480,10536,Northbound Kennedy at Qu'Appelle,49.89482312007862,-97.14989111866691,Unchanged
481,10538,Northbound Kennedy at Sargent,49.89621119041977,-97.15063173684946,Removed
482,10541,Westbound Portage at Garry,49.894724051256354,-97.14089982436434,Unchanged
483,10542,Westbound Portage at Donald (Canada Life Centre),49.893870943195815,-97.14323007576962,Unchanged
484,10543,Westbound Portage at Edmonton (Portage Place),49.89246563222165,-97.14702946821048,Unchanged
485,10545,Westbound Portage at Colony,49.891208569621185,-97.15054450587616,Unchanged
486,10546,Westbound Portage at Spence (U of W),49.88999279516534,-97.1538350169732,Unchanged
487,10547,Westbound Portage at Langside,49.88913207689593,-97.15683338426066,Removed
488,10548,Westbound Portage at Sherbrook,49.8885791963869,-97.15883143927589,Unchanged
489,10549,Westbound Portage at Maryland,49.8879340261636,-97.16125062501692,Unchanged
490,10550,Westbound Portage at Broadway,49.88703191469943,-97.164486974533,Unchanged
491,10551,Westbound Portage at Simcoe,49.88624481429701,-97.16760747248637,Removed
492,10552,Westbound Portage at Burnell,49.88534296146702,-97.170871420863,Unchanged
493,10553,Westbound Portage at Lipton,49.88493499795458,-97.17351799016352,Unchanged
494,10555,Westbound Portage at Wall,49.88407037996677,-97.18030238948089,Unchanged
495,10556,Westbound Portage at Wall,49.88367861204183,-97.18342151440886,Removed
496,10557,Westbound Portage at Erin,49.883260932831526,-97.18604040554472,Unchanged
497,10558,Westbound Portage at Valour,49.882669711194026,-97.18906944767627,Unchanged
498,10559,Westbound Portage at Strathcona,49.882122054316504,-97.19201326378555,Removed
499,10561,Westbound Portage at Tylehurst (Polo Park),49.88081204640024,-97.19914758490584,Unchanged
500,10562,Eastbound Portage at Tylehurst (Polo Park),49.88039580167746,-97.1995667547574,Unchanged
501,10563,Eastbound Portage at St. John Ambulance,49.88102834934966,-97.19628588237454,Removed
502,10564,Eastbound Portage at Raglan,49.88201629102651,-97.19100101414608,Removed
503,10565,Eastbound Portage at Craig,49.882232844337615,-97.18989319067842,Unchanged
504,10566,Eastbound Portage at Erin,49.88284844226862,-97.18669622346536,Unchanged
505,10567,Eastbound Portage at Newman,49.88334202411657,-97.1837543306631,Removed
506,10568,Eastbound Portage at Sprague,49.88365505360796,-97.1813481636369,Unchanged
507,10569,Eastbound Portage at Dominion,49.88403163214695,-97.17841056963532,Unchanged
508,10570,Eastbound Portage at Sherburn,49.88432832379658,-97.17611631810806,Removed
509,10571,Eastbound Portage at Lipton,49.884688764896886,-97.17330454221398,Unchanged
510,10572,Eastbound Portage at Lenore,49.88500421288866,-97.17106520383162,Removed
511,10573,Eastbound Portage at Arlington,49.88538521690363,-97.1695611974742,Unchanged
512,10574,Eastbound Portage at Canora,49.88626094508353,-97.1663538986159,Removed
513,10575,Eastbound Portage at Broadway,49.88684793074922,-97.16422943589544,Unchanged
514,10576,Eastbound Portage at Maryland,49.88779844623893,-97.16064319767509,Unchanged
515,10577,Eastbound Portage at Sherbrook,49.88838466111531,-97.15847685844872,Unchanged
516,10578,Eastbound Portage at Langside,49.88877581727608,-97.15705579381884,Removed
517,10579,Eastbound Portage at Balmoral (U of Winnipeg),49.88993608423463,-97.15309926786396,Unchanged
518,10580,Eastbound Portage at Vaughan (The Bay),49.891203995508654,-97.14969536203162,Unchanged
519,10581,Eastbound Portage at Edmonton (Portage Place),49.89201562979916,-97.14757579661158,Unchanged
520,10582,Eastbound Portage at Donald (Canada Life Centre),49.89348975141049,-97.14357888074984,Unchanged
521,10583,Eastbound Portage at Fort,49.89479132125154,-97.14004785655725,Unchanged
522,10584,Eastbound Broadway at Osborne,49.88537890766966,-97.150488889329,Removed
523,10585,Eastbound Broadway at Osborne East (Legislature),49.88551714686225,-97.14900791395492,Unchanged
524,10586,Eastbound Broadway at Edmonton,49.88650462486032,-97.1443898325602,Unchanged
525,10588,Eastbound Broadway at Donald,49.887412304336515,-97.1404150480296,Unchanged
526,10589,Eastbound Broadway at Smith,49.88787407462866,-97.13836464352572,Unchanged
527,10590,Westbound Broadway at Smith,49.8881055234655,-97.13877341000816,Unchanged
528,10591,Westbound Broadway at Donald,49.887634979977605,-97.14083807973896,Unchanged
529,10593,Westbound Broadway at Edmonton,49.8869127886797,-97.1440400513638,Unchanged
530,10594,Westbound Broadway at Osborne,49.885542942145264,-97.15062183610452,Removed
531,10595,Northbound Osborne at Assiniboine,49.883205592724806,-97.14845596399113,Unchanged
532,10596,Northbound Osborne at Broadway (Legislature),49.88519187485497,-97.14947976631107,Unchanged
533,10598,Southbound Osborne at York,49.88794413344428,-97.150028857977,Unchanged
534,10599,Southbound Osborne at Broadway (Legislature),49.885640812419915,-97.14999162119976,Unchanged
535,10600,Southbound Osborne at Granite,49.88331093020371,-97.14885564244786,Unchanged
536,10602,Northbound Memorial at Broadway,49.88632326310766,-97.1476684239792,Removed
537,10604,Northbound Memorial at York,49.88756862782682,-97.14848392695512,Removed
538,10607,Northbound Osborne at York,49.88727423854226,-97.14976210521232,Unchanged
539,10608,Eastbound York at Memorial,49.8875433497189,-97.1491531600682,Removed
540,10609,Northbound St James at Superstore,49.89973300370383,-97.20001679454911,Unchanged
541,10611,Eastbound Graham at Fort (Wpg Square),49.89289396056128,-97.13896513270365,Unchanged
542,10612,Westbound Graham at Garry (Wpg Square),49.89279928255829,-97.13979027501335,Removed
543,10614,Westbound Graham at Donald (Canada Life Centre),49.89219471763528,-97.14247292020964,Removed
544,10615,Eastbound Graham at Smith,49.892314372957664,-97.14152152197448,Removed
545,10616,Eastbound Graham at Hargrave,49.89170865183775,-97.1441345452964,Removed
546,10617,Westbound Graham at Edmonton (RWB),49.891295961550135,-97.14644771901668,Removed
547,10618,Eastbound Graham at Edmonton (RWB),49.891129616529575,-97.1467325568193,Removed
548,10619,Westbound Graham at Vaughan (The Bay),49.89069822708657,-97.14900462598732,Removed
549,10620,Westbound St Mary at Fort,49.89171059839322,-97.13753477148788,Removed
550,10623,Eastbound McDermot at Main,49.896982334644896,-97.13925343694724,Removed
551,10624,Northbound Main at Assiniboine,49.886851091143974,-97.1334895269339,Removed
552,10625,Northbound Main at Broadway (Union Station),49.88925684269111,-97.13485860670144,Unchanged
553,10627,Northbound Main at Portage and Main Junction,49.89490070138789,-97.13789930305114,Unchanged
554,10628,Northbound Main at McDermot,49.8969808091659,-97.13859902362526,Unchanged
555,10629,Northbound Main at James (Concert Hall),49.89990062756478,-97.13781821612318,Unchanged
556,10630,Northbound Main at Logan,49.90235911964378,-97.13575991706476,Unchanged
557,10631,Northbound Main at Higgins,49.90427121986661,-97.13440491710436,Unchanged
558,10632,Southbound Main at Higgins,49.90340527950955,-97.13537141844049,Unchanged
559,10633,Southbound Main at Alexander,49.901780157006975,-97.1366735193475,Unchanged
560,10634,Southbound Main at James,49.90022805318917,-97.13804234920696,Removed
561,10635,Southbound Main at William (City Hall),49.89903036515417,-97.13907716881502,Unchanged
562,10636,Southbound Main at McDermot,49.89711471591909,-97.13909516968349,Unchanged
563,10637,Southbound Main at Lombard,49.896175561608935,-97.13886673056592,Removed
564,10638,Southbound Main at Portage and Main Junction,49.894064458060654,-97.13791756837088,Unchanged
565,10639,Southbound Main at St. Mary,49.89135108397374,-97.13643474615122,Unchanged
566,10640,Northbound Smith at Portage North,49.89451378063114,-97.1423699486405,Unchanged
567,10641,Southbound Main at Broadway (Union Station),49.88825654763779,-97.13474401922451,Unchanged
568,10643,Northbound Fort at Graham,49.89286882224675,-97.1385205396758,Removed
569,10644,Northbound Fort at Graham North,49.89415651205584,-97.13916719609897,Removed
570,10645,Eastbound Mayfair at Harkness,49.88396633629199,-97.13477017480672,Removed
571,10646,Northbound Fort at Portage,49.89477316360608,-97.13947765843248,Unchanged
572,10648,Southbound Garry at Portage North,49.89477547875214,-97.14130165257286,Unchanged
573,10649,Southbound Garry at Portage South,49.894049617353346,-97.14091181927408,Removed
574,10650,Southbound Garry at Graham,49.89280621348895,-97.14022164421476,Removed
575,10651,Northbound Smith at Broadway,49.88840664995304,-97.13904027599868,Unchanged
576,10652,Northbound Smith at St. Mary,49.89086582850485,-97.14037977318362,Unchanged
577,10653,Northbound Smith at Graham South,49.89218159425821,-97.14109499261532,Unchanged
578,10654,Northbound Smith at Portage South,49.89394208382671,-97.14205772453114,Removed
579,10655,Northbound King at Notre Dame,49.89631323939863,-97.14239831770476,Unchanged
580,10656,Northbound King at McDermot,49.89735294692517,-97.1416064368961,Unchanged
581,10657,Northbound King at William (City Hall),49.89964518408364,-97.1398333525765,Unchanged
582,10658,Northbound King at Rupert,49.90098581504399,-97.1387373328985,Unchanged
583,10664,Southbound Princess at James,49.901094006160314,-97.1404321558456,Unchanged
584,10665,Southbound Princess at William (RRC Polytech),49.89976865642798,-97.1413604348562,Removed
585,10666,Southbound Princess at McDermot,49.897892649764245,-97.14272756690588,Unchanged
586,10667,Southbound Donald at Notre Dame,49.89630272694363,-97.1439861412164,Unchanged
587,10668,Southbound Donald at Ellice,49.89455988199535,-97.14412263168248,Unchanged
588,10669,Southbound Donald at Portage South,49.89310795282576,-97.14332897939435,Unchanged
589,10670,Southbound Donald at Graham,49.89170163562447,-97.142575392535,Unchanged
590,10671,Southbound Donald at St. Mary,49.89037666572962,-97.14184657012476,Unchanged
591,10672,Southbound Donald at York,49.888770559625655,-97.1409754392882,Removed
592,10673,Southbound Donald at Broadway,49.88780873551899,-97.14045550158012,New
593,10676,Westbound Stradbrook at Queen Elizabeth,49.88327735842539,-97.13276426426177,Removed
594,10685,Southbound Carlton at Broadway,49.88656752092377,-97.14270286690302,Removed
595,10686,Southbound Carlton at Assiniboine,49.88490703711474,-97.14180601795032,Removed
596,10687,Northbound Edmonton at Assiniboine,49.88426487068891,-97.14270771630322,Removed
597,10695,Southbound Kennedy at Sargent,49.89603406760707,-97.15080560437632,Removed
598,10696,Southbound Kennedy at Qu'Appelle,49.895181271768365,-97.15035085049094,Unchanged
599,10699,Southbound Kennedy at Graham,49.890608061373975,-97.1478663823469,Removed
600,10700,Southbound Kennedy at St. Mary,49.889564470452704,-97.14729372896888,Removed
601,10701,Southbound Kennedy at York,49.88808559320933,-97.14650109185936,Removed
602,10702,Southbound Kennedy at Broadway,49.88660648784355,-97.14569458872224,Removed
603,10703,Northbound Vaughan at St. Mary,49.88897642149988,-97.1482072939068,Removed
604,10704,Northbound Vaughan at Graham (The Bay),49.89041910700292,-97.14898745850913,Removed
605,10706,Northbound Vaughan at Portage South,49.89123572757823,-97.14942960636756,Removed
606,10707,Northbound Vaughan at Portage North,49.89184314117183,-97.1497266113996,Removed
607,10709,Northbound Balmoral at Qu'Appelle,49.895210828127155,-97.15220166683856,Removed
608,10710,Eastbound William Stephenson at Portage and Main Junction,49.89360292713449,-97.13662648073796,Unchanged
609,10712,Eastbound Disraeli at Martha,49.90152383766292,-97.13416274368063,Unchanged
610,10713,Westbound William at McPhillips,49.909003005213265,-97.17050578046825,Unchanged
611,10714,Eastbound Disraeli at Henry,49.9024686743236,-97.1297255082803,Unchanged
612,10715,Westbound Disraeli at Henry,49.90263655390115,-97.13009503340092,Unchanged
613,10716,Westbound Disraeli at Martha,49.90171979275626,-97.13460082550463,Unchanged
614,10719,Westbound Market at Main (Concert Hall),49.8990942979297,-97.13745934566008,Removed
615,10720,Westbound William at King (City Hall),49.89920380610349,-97.13979462557784,Removed
616,10721,Eastbound William at Princess (RRC Polytech),49.89954682429214,-97.14154999328936,Unchanged
617,10722,Westbound William at Princess (RRC Polytech),49.89978345471247,-97.14172193541548,Unchanged
618,10723,Eastbound William at Dagmar,49.90030416194754,-97.14390221918424,Removed
619,10724,Westbound William at Ellen,49.90089102063489,-97.14516089401204,Unchanged
620,10725,Eastbound William at Ellen,49.900853430745954,-97.14562189506674,Unchanged
621,10726,Westbound William at Gertie,49.90153484393373,-97.14716943261315,Removed
622,10727,Eastbound William at Gertie,49.901525550665816,-97.14771291176746,Removed
623,10728,Westbound William at Isabel,49.90246233242785,-97.15004453758044,Unchanged
624,10729,Eastbound William at Isabel,49.90227355279027,-97.15005175889584,Unchanged
625,10730,Eastbound Stradbrook at Donald,49.879944053988886,-97.13802935805217,Unchanged
626,10732,Eastbound William at Kate,49.90302106402042,-97.15236284299792,Unchanged
627,10733,Westbound William at Kate,49.903163119252,-97.15224600207742,Unchanged
628,10735,Northbound Balmoral at Sargent,49.89645049441163,-97.15209861293155,Unchanged
629,10736,Westbound William at Sherbrook (HSC),49.90441164888638,-97.1560839450073,Removed
630,10737,Eastbound William at Sherbrook (HSC),49.90415683828964,-97.1558986832672,Removed
631,10740,Westbound William at Health Sciences Centre,49.90557627096227,-97.15974422081771,Unchanged
632,10741,Eastbound William at Health Sciences Centre,49.905084555363054,-97.1588019536682,Unchanged
633,10743,Eastbound William at Tecumseh,49.90633353297763,-97.16268198050165,Unchanged
634,10744,Westbound William at Tecumseh,49.90624769711345,-97.16180780477676,Unchanged
635,10745,Eastbound William at Arlington,49.90710930825104,-97.1650898716508,Removed
636,10746,Westbound William at Arlington,49.90755404116114,-97.1659086716036,Unchanged
637,10747,Eastbound William at Lark,49.908253908483125,-97.16863989697389,Removed
638,10748,Westbound William at Lark,49.90844313025609,-97.16866058639864,Removed
639,10749,Eastbound William at McPhillips,49.90877540567465,-97.17033332458438,Unchanged
640,10750,Southbound Isabel at Notre Dame,49.8991532307573,-97.15180039711204,Unchanged
641,10751,Northbound Isabel at Notre Dame,49.899539881063085,-97.151228596022,Unchanged
642,10752,Southbound Isabel at McDermot,49.90044182069647,-97.1508181193387,Removed
643,10753,Northbound Isabel at Bannatyne,49.9010858257986,-97.15002756028692,Removed
644,10754,Northbound Isabel at William,49.90201005721844,-97.1493237405344,Unchanged
645,10755,Southbound Isabel at William,49.90223657464365,-97.14942648379792,Unchanged
646,10756,Southbound Isabel at Ross,49.90359972931829,-97.1486083446584,Unchanged
647,10757,Northbound Isabel at Ross,49.904076034934064,-97.1480191038206,Unchanged
648,10758,Southbound Isabel at Alexander,49.90538746893134,-97.14734214749149,Unchanged
649,10759,Northbound Isabel at Logan,49.90563160055825,-97.14685926188804,Unchanged
650,10760,Westbound Pioneer at Westbrook,49.89357538423669,-97.13435793613117,Removed
651,10761,Westbound Pioneer at Portage and Main Junction,49.89450900608592,-97.13759412352408,Unchanged
652,10762,Westbound Portage at Main,49.895330438350626,-97.1372143864317,Removed
653,10763,Eastbound Portage at Portage and Main Junction,49.89511334794,-97.13713919981188,Unchanged
654,10764,Westbound Portage at Westbrook,49.894819022023185,-97.13561885926708,Removed
655,10765,Northbound King at Notre Dame,49.896098102809745,-97.14300534057432,Unchanged
656,10766,Westbound Notre Dame at Hargrave,49.897127546661245,-97.14550016406676,Removed
657,10767,Westbound Notre Dame at Dagmar,49.89764848599027,-97.14713728027851,Unchanged
658,10768,Westbound Notre Dame at Gertie,49.89828239451822,-97.14909038948524,Removed
659,10769,Westbound Notre Dame at Isabel,49.89939939771922,-97.15257082494875,Unchanged
660,10770,Westbound Notre Dame at Lydia,49.90019446703924,-97.15504710700108,Removed
661,10771,Westbound Notre Dame at Sherbrook,49.90106649437267,-97.15784083776693,Unchanged
662,10773,Eastbound McDermot at Isabel,49.90023039323886,-97.15053376004036,Removed
663,10775,Eastbound McDermot at Frances,49.89920856912681,-97.14738387891558,Removed
664,10776,Eastbound McDermot at Dagmar,49.898592610632754,-97.14543006641668,Removed
665,10777,Eastbound McDermot at Adelaide,49.89808152904618,-97.1438482593195,Removed
666,10778,Eastbound McDermot at Arthur,49.897267573353474,-97.14133121667122,Removed
667,10779,Eastbound Grant at Pembina,49.86461704309969,-97.14759431728292,Unchanged
668,10780,Westbound Grant at Arbuthnot,49.864253115083976,-97.15071139561756,Removed
669,10781,Westbound Grant at Lilac,49.86355804775611,-97.15281131758944,Unchanged
670,10782,Westbound Grant at Stafford,49.86232207941887,-97.15653200388736,Unchanged
671,10785,Eastbound Grant at Stafford,49.862001775853784,-97.15675291859874,Unchanged
672,10786,Eastbound Grant at Lilac,49.863460604996106,-97.15234191507238,Unchanged
673,10787,Eastbound Grant at Arbuthnot,49.86422469086974,-97.15005845281009,Removed
674,10788,Eastbound James at Main,49.900134988483494,-97.13840800400496,Unchanged
675,10789,Eastbound Notre Dame at Arlington,49.90417237430657,-97.16820953812504,Unchanged
676,10790,Southbound Balmoral at Sargent,49.89638279841965,-97.1523657692312,Unchanged
677,10791,Northbound Valour at Dyson,49.89205787779685,-97.18832820252264,Removed
678,10792,Westbound Dublin at Notre Dame,49.911243321086395,-97.1905762534413,Removed
679,10793,Westbound Dublin at Orange,49.91134390604543,-97.19413831364632,Removed
680,10794,Eastbound Dublin at Orange,49.91114608552266,-97.19298960028662,Removed
681,10795,Westbound Dublin at Field,49.911427041013106,-97.19658671635072,Removed
682,10796,Eastbound Dublin at Field,49.91125038148066,-97.19621722381387,Removed
683,10797,Eastbound Dublin at St. James,49.91133585452911,-97.19881875667213,Removed
684,10798,Southbound Stafford at Grosvenor,49.8703369273021,-97.16333856539012,New
685,10798,Southbound Stafford at Grosvenor,49.87080179765981,-97.1637245342538,Removed
686,10800,Eastbound Pacific at Martha,49.90067675060604,-97.13574121036945,Removed
687,10801,Eastbound Notre Dame at Dublin,49.91147074365213,-97.1901637996936,Unchanged
688,10802,Southbound Westbrook at William Stephenson,49.89357307451088,-97.13588966081085,Removed
689,10803,Eastbound William Stephenson at Canadian Museum for Human Rights,49.89240162889352,-97.13296906744426,Unchanged
690,10804,Westbound Pioneer at Canadian Museum for Human Rights,49.89252209427399,-97.13263025053205,Unchanged
691,10805,Northbound Empress at St Matthews,49.89070133498948,-97.1959252952628,Removed
692,10806,Southbound Empress at St Matthews,49.89046294792364,-97.1962126438,Removed
693,10808,Southbound Pembina at Taylor,49.85886248064983,-97.15111201267376,Removed
694,10810,Southbound Empress at Jack Blick,49.8857874051105,-97.19633124618048,Removed
695,10811,Eastbound Maroons at St. James,49.88788578226525,-97.2005410779128,Unchanged
696,10812,Eastbound Maroons at Empress,49.88773417957613,-97.19657889064388,Unchanged
697,10813,Northbound Empress at Sargent,49.89750927447738,-97.19526756766446,Removed
698,10814,Southbound Empress at Ellice,49.89421524373407,-97.19572463578378,Removed
699,10815,Southbound Maryland at Misericordia Health Centre,49.88010755643578,-97.16119997456784,Unchanged
700,10817,Southbound Stafford at Pembina,49.85683350549028,-97.1524834006153,Unchanged
701,10818,Northbound St James at Costco,49.90418889358765,-97.19965596988948,Unchanged
702,10819,Eastbound Broadway at Furby,49.88564341949334,-97.1580521576024,Removed
703,10820,Northbound Empress at Ellice,49.89390698973262,-97.19556904484296,Removed
704,10821,Westbound Polo Park West Access at Polo Park (12),49.88510676297461,-97.19999011050496,Removed
705,10822,Northbound Polo Park Terminal at Polo Park (78),49.88134374226894,-97.1992113233058,Removed
706,10823,Northbound Polo Park Terminal at Polo Park (77),49.8815235379866,-97.19920463351464,Removed
707,10824,Northbound Polo Park Terminal at Polo Park (66),49.881722178906365,-97.19925292430676,Removed
708,10825,Southbound Polo Park at Polo Park Hub (680),49.88163098258673,-97.19917279484012,New
709,10825,Southbound Polo Park at Polo Park (79),49.88163953953783,-97.19914463556964,Removed
710,10826,Southbound Polo Park at Polo Park Hub (70),49.88145140328877,-97.19919339710698,New
711,10826,Southbound Polo Park at Polo Park,49.881460176661264,-97.1991791502798,Removed
712,10827,Southbound Polo Park at Polo Park Hub (22),49.88124485462154,-97.1992150026622,Unchanged
713,10830,Northbound Fort at Assiniboine,49.88689844476339,-97.13531148745489,Removed
714,10831,Northbound Balmoral at Balmoral Station (BLUE),49.891518573386264,-97.15249584699654,Removed
715,10832,Southbound Balmoral at Cumberland,49.89782989005566,-97.15229656793156,Unchanged
716,10834,Southbound Empress at Maroons,49.887651971199546,-97.19649842154364,Removed
717,10835,Northbound Balmoral at Ellice North,49.89395007280808,-97.15211058343908,Unchanged
718,10836,Northbound Sherbrook at Logan,49.90778229205632,-97.1525430418071,Removed
719,10837,Northbound Sherbrook at Henry,49.90868023532012,-97.1518819590072,Removed
720,10838,Northbound Balmoral at Ellice,49.89260652919197,-97.15246822335055,Removed
721,10839,Northbound Balmoral at Cumberland,49.89805961934849,-97.1520371381102,Unchanged
722,10840,Southbound Vaughan at St. Mary,49.889261105604206,-97.14857231115892,Removed
723,10841,Northbound Empress at Maroons,49.88765684228597,-97.19623371867964,Removed
724,10844,"Northbound Balmoral at Balmoral Station (48, 49)",49.89124511191497,-97.1522695941318,Removed
725,10845,Northbound Balmoral at Balmoral Station (46),49.89138872237797,-97.15225018609549,Removed
726,10846,Northbound Balmoral at Balmoral Station (42),49.891505364229346,-97.15223180793669,Removed
727,10864,Southbound Kennedy at Broadway North,49.8870330062483,-97.1459288409388,Removed
728,10870,Westbound Broadway at Osborne East (Legislature),49.885599294969104,-97.14964516734771,Unchanged
729,10872,Northbound Edmonton at Broadway,49.886097933306935,-97.1437093384401,Removed
730,10874,Eastbound Wolseley at Misericordia Health Centre,49.880229801519135,-97.16040188545016,Removed
731,10875,Northbound Sherbrook at Portage South,49.8880955297332,-97.15896122242115,Removed
732,10877,Southbound Memorial at York,49.88790337563125,-97.14916723320158,Removed
733,10878,Southbound Memorial at Broadway,49.886131058970555,-97.14802382651868,Removed
734,10880,Northbound Polo Park at Polo Park (74),49.88119091590399,-97.1992170095753,Removed
735,10881,Southbound Polo Park at Polo Park Hub (D16),49.88109246106621,-97.19924851335868,Unchanged
736,10901,Southbound Israel Asper at Canadian Museum for Human Rights,49.88976729591246,-97.13192904986732,Unchanged
737,10902,Northbound Israel Asper at Canadian Museum for Human Rights,49.88925512936345,-97.13140583832558,Unchanged
738,10903,Northbound Israel Asper at William Stephenson,49.8928762915556,-97.1317254576883,New
739,10904,Northbound Riverview Centre Access at Riverview Centre (Main Entrance),49.868505104419576,-97.12039141711188,Unchanged
740,10907,Eastbound Forks Market at The Forks Market,49.887822668560275,-97.13070935353262,Unchanged
741,10908,Westbound Tecumseh at Tecumseh Loop,49.9064336047789,-97.16161967837506,New
742,10910,Northbound Osborne at Osborne Station,49.87393476690385,-97.141350363071,Unchanged
743,10911,Southbound Osborne at Osborne Station,49.87383923245959,-97.14156280506424,Unchanged
744,10939,Southbound Israel Asper at William Stephenson,49.891586295320494,-97.1326106774134,Unchanged
745,10940,Eastbound Ellice at Edmonton,49.89401544631507,-97.14832074008602,New
746,11005,Westbound Ellice at Smith,49.89543020242428,-97.1428638868414,New
747,11010,Northbound Fort at Broadway,49.88882168676582,-97.13632333079693,Removed
748,11016,Westbound River at Donald,49.88244387066379,-97.13686128375498,Unchanged
749,11022,Westbound Rupert at Princess,49.90155636002913,-97.139537024242,Removed
750,11023,Northbound St James at Ness,49.88329209201088,-97.20129656750316,Unchanged
751,11024,Northbound Fort at St. Mary,49.89139887747817,-97.13772777498872,Removed
752,11025,Eastbound Ellice at Balmoral,49.89288087848398,-97.15275014453874,Unchanged
753,11027,Southbound Southwest Transitway at Harkness Station,49.8807570744673,-97.1354506707884,Unchanged
754,11028,Northbound Southwest Transitway at Harkness Station,49.88091913355152,-97.13490153505047,Unchanged
755,11029,Southbound Southwest Transitway at Osborne Station,49.87328305505622,-97.1410970220562,Unchanged
756,11030,Northbound Southwest Transitway at Osborne Station,49.8735739001523,-97.14072398095963,Unchanged
757,11031,Southbound Southwest Transitway at Fort Rouge Station,49.862411064961776,-97.14577234321878,Unchanged
758,11032,Northbound Southwest Transitway at Fort Rouge Station,49.86298491251283,-97.14509636033004,Unchanged
759,11033,Southbound Southwest Transitway at Jubilee Station,49.85569247453471,-97.15031474518727,Unchanged
760,11034,Northbound Southwest Transitway at Jubilee Station,49.85614116382014,-97.14968543279382,Unchanged
761,11036,Northbound Daly at Morley (95 To Riverview),49.862853709707466,-97.14084336175952,Removed
762,11037,"Southbound Fort Rouge Station at Fort Rouge Station (F5, 557 to Windermere)",49.86254865903626,-97.14537745463684,Unchanged
763,11038,Southbound Fort Rouge Station at Fort Rouge Station (557 to Sage Creek),49.8623978421932,-97.14550846493412,Unchanged
764,11039,Southbound Vaughan at Portage North,49.89196556455047,-97.15007001623,Removed
765,11040,Westbound Wellington at Palk,49.87410383038596,-97.15981350310588,Removed
766,11041,Eastbound Wellington at Palk,49.87344330850675,-97.15900352262553,Removed
767,11042,Westbound Wellington at Kingsway,49.87502990768884,-97.160919624075,Removed
768,11043,Eastbound Wellington at Kingsway,49.87513542265543,-97.16133317400826,Removed
769,11044,Westbound Wellington at Academy,49.877074063104686,-97.16276280674658,Removed
770,11045,Westbound Wolseley at Misericordia Health Centre,49.88034246538025,-97.16013312102956,Unchanged
771,11046,Southbound Southwest Transitway at Harkness Station,49.88049478441331,-97.13592014187272,Removed
772,11047,Eastbound Morley at Hugo,49.86211023998616,-97.14327917967896,Removed
773,11048,Westbound Morley at Hugo,49.86211648569805,-97.14366855737252,Removed
774,11049,Northbound Southwest Transitway at Jubilee Overpass,49.85405303735113,-97.15016865354296,Removed
775,11050,Southbound Southwest Transitway at Jubilee Overpass,49.8539102129978,-97.15080017104516,Removed
776,11051,Northbound Main at St. Mary,49.89175202506861,-97.13619652709178,Unchanged
777,11052,Westbound Broadway at Main,49.88878598076956,-97.135781725487,Unchanged
778,11054,Eastbound Wolseley at Palmerston,49.879230575901346,-97.16602170051137,Unchanged
779,11055,Eastbound Wolseley at Maryland,49.88025271588037,-97.16127798021732,Removed
780,11056,Westbound Wolseley at Maryland,49.880389769527696,-97.16141197477044,Unchanged
781,11057,Westbound Wolseley at Canora,49.8793566510296,-97.16603084321684,Unchanged
782,11058,Westbound Wolseley at Arlington,49.87945909400852,-97.17023075698228,Removed
783,11059,Eastbound Ellice at Smith,49.89535136526978,-97.14243525521768,Unchanged
784,11060,Northbound Main at Graham (Portage and Main),49.8931496162794,-97.13696418952183,New
785,11100,Northbound Arlington at Portage South,49.8853632774798,-97.16931143945789,New
786,11102,Eastbound William at Furby,49.90363646398275,-97.15428908762492,New
787,11103,Westbound William at Furby,49.903778077379165,-97.15414441396756,New
788,11104,Eastbound Ellice at Donald,49.8949230307644,-97.14433148887105,New
789,11105,Westbound Ellice at Donald,49.89507741349182,-97.14442303727128,New
790,11106,Westbound Ellice at Edmonton,49.89427124489855,-97.1480046176612,New
791,11107,Southbound Erin at Portage,49.88437221806857,-97.18520523973724,New
792,11108,Eastbound Broadway at Portage,49.88626774174403,-97.16394516690968,New
793,11109,Westbound Broadway at Maryland,49.88592559109576,-97.16109027460256,New
794,11110,Northbound Tecumseh at William,49.90619714324744,-97.16258966990674,New
795,11111,Southbound Arlington at Portage South,49.88514161685914,-97.16951472588777,New
796,11112,Northbound Arlington at Westminster,49.88178738318672,-97.16957199075996,New
797,11113,Northbound Arlington at Portage North,49.88607301817939,-97.16925674510284,New
798,11114,Northbound Arlington at St. Paul,49.888094364016034,-97.16909673267584,New
799,11115,Southbound Arlington at Westminster,49.88141311788725,-97.16979495187368,New
800,11116,Southbound Arlington at Wolseley,49.87954437228502,-97.16993521573512,New
801,11117,Northbound Waterfront at Lombard,49.89554208281244,-97.13304280265844,New
802,11118,Northbound Waterfront at James,49.89867939302325,-97.13292170706669,New
803,11119,Northbound Waterfront at George,49.90084472821325,-97.12886918860998,New
804,11120,Southbound Waterfront at George,49.9006836048652,-97.13003128156775,New
805,11121,Southbound Waterfront at James,49.89820136990902,-97.13339969419984,New
806,11122,Southbound Waterfront at Lombard,49.89550926689102,-97.13323901247745,New
807,11123,Westbound Maroons at Empress,49.88787357735962,-97.19686606216504,New
808,11124,Westbound Maroons at St. James,49.887999837769,-97.20035584684616,New
809,11125,Eastbound Morley at Daly,49.86300318065412,-97.14062889632632,New
810,11126,Eastbound William at Arlington,49.90710930825104,-97.1650898716508,New
811,11127,Northbound Wall at Wolever,49.88736136737131,-97.18251754416566,New
812,11128,Northbound Wall at St. Matthews,49.89064962793767,-97.182268715783,New
813,11129,Northbound Wall at Ellice,49.89382979111745,-97.18200998581212,New
814,11130,Northbound Wall at Sargent,49.89743246636926,-97.1817353339599,New
815,11131,Northbound Wall at Wellington,49.900855345030095,-97.18146739438812,New
816,11132,Northbound Wall at Richard,49.904089656488885,-97.18122042933312,New
817,11133,Northbound Wall at Notre Dame,49.90667714750636,-97.18102561324008,New
818,11134,Southbound Erin at Richard,49.9043890316062,-97.1836742508167,New
819,11135,Southbound Erin at Wellington,49.90055262302006,-97.1839575880348,New
820,11136,Southbound Erin at Sargent,49.89712074674331,-97.18422568673614,New
821,11137,Southbound Erin at Ellice,49.8935092918242,-97.184514403927,New
822,11138,Southbound Erin at St. Matthews,49.89018572215573,-97.18480619299656,New
823,11139,Eastbound Rathgar at Lilac,49.8571396833858,-97.14687851222054,New
824,11140,Eastbound Rathgar at Cockburn,49.85855720712318,-97.14271968777534,New
825,11141,Westbound Beresford at Lilac,49.85647431616615,-97.14633352232988,New
826,11142,Eastbound Higgins at Waterfront,49.9035050808822,-97.12651010846652,New
827,11144,Westbound Notre Dame at Arlington,49.90445479524514,-97.1684355999874,New
828,11145,Southbound Princess at William (RRC Polytech),49.89933219410641,-97.14162786837085,New
829,11146,Northbound Stafford at Grant,49.862460245611786,-97.15673546935852,New
830,11147,Northbound Stafford at Grosvenor,49.870723922505256,-97.163351719488,New
831,11148,Eastbound Notre Dame at Erin,49.90900819262232,-97.18340323636032,New
832,11149,Eastbound Grosvenor at Stafford,49.87050177073247,-97.1629565454988,New
833,11150,Eastbound Logan at Keewatin,49.92153557782851,-97.1953178998994,New
834,11151,Northbound St James at Sargent,49.89817885652529,-97.20014425592164,New
835,11152,Northbound Tecumseh at Notre Dame,49.903548717855024,-97.16461219569548,New
836,11153,Westbound Morley at Osborne,49.86509454433203,-97.1347596392818,New
837,11154,Eastbound Morley at Osborne,49.864993866969186,-97.13465219125747,New
838,17001,Eastbound Webb at Vaughan,49.89271772191654,-97.15154501338034,New
839,17003,Westbound Station at Jubilee Station,49.85567824924664,-97.14942485387948,New
840,17005,Southbound Wolever at Erin,49.88690600736186,-97.18502668107698,New
841,17006,Westbound Broadway at Portage,49.886635489682625,-97.16444632433256,New
842,17007,Westbound Graham at Graham (Portage & Main),49.89314704805488,-97.13848198630971,New
843,17008,Eastbound Corydon at Osborne,49.87446844048537,-97.14209538789248,New
844,17009,Northbound Donald at Stradbrook,49.88046637616302,-97.13750813708404,New
845,17010,Northbound Donald at River,49.8824712869189,-97.13688806980038,New
846,17011,Northbound McPhillips at William,49.908909617961825,-97.17085752232012,New
847,17012,Southbound McPhillips at William,49.909005890765954,-97.1712578025936,New
848,17013,Eastbound Cumberland at Carlton,49.896894760073366,-97.14837761846071,New
849,17015,Northbound Colony at Portage North,49.891430542141904,-97.15092587344856,New
850,17016,Southbound Balmoral at Ellice,49.89337152784626,-97.15249470347904,New
851,17018,Southbound Memorial at Portage,49.89007499996928,-97.15053214594452,New
852,17019,Northbound Wall at Portage,49.88439651489818,-97.18274026694816,New
853,17020,Westbound Broadway at Portage,49.886745073325734,-97.16398274292938,New
854,20001,Southbound St James at Ness South,49.88208430536042,-97.20171731100548,Unchanged
855,20002,Southbound St James at Ness North,49.88451881076416,-97.2015154764902,Removed
856,20003,Southbound St James at St. Matthews,49.89110378404099,-97.20097832022633,Unchanged
857,20004,Southbound St James at Ellice,49.893735842486024,-97.20075512750356,Unchanged
858,20005,Southbound St James at Sargent,49.89800338787861,-97.20042928813218,Unchanged
859,20006,Southbound St James at Wellington,49.901506582878355,-97.20011790103916,Unchanged
860,20007,Southbound St James at Saskatchewan,49.90588156397808,-97.19976008022634,Removed
861,20008,Southbound St James at Dublin South,49.90856798355238,-97.199562563548,Unchanged
862,20009,Southbound St James at Dublin,49.911649516930325,-97.19932244699564,Removed
863,20010,Southbound St James at Bangor,49.91334771135847,-97.19920347586132,Removed
864,20011,Southbound St James at Notre Dame,49.91518974082081,-97.19907913620632,Removed
865,20012,Westbound Notre Dame at Keewatin,49.916529611977175,-97.19558838603972,Unchanged
866,20013,Westbound Logan at Dee,49.922765480673135,-97.19862965394805,Unchanged
867,20014,Eastbound Logan at Dee,49.92261395507772,-97.19871889541344,Unchanged
868,20015,Westbound Logan at Ada,49.92403241961286,-97.20259503121196,Unchanged
869,20016,Eastbound Logan at Ada,49.92401323021231,-97.20309732005175,Unchanged
870,20017,Southbound Berry at Wellington,49.90119269049427,-97.20946004344133,Unchanged
871,20018,Westbound Sargent at Bradford,49.898033327005486,-97.20467534619333,Removed
872,20019,Southbound King Edward at Logan,49.92478299399237,-97.20691416656258,Unchanged
873,20020,Northbound King Edward at Logan,49.924804787940744,-97.2065789691236,Unchanged
874,20021,Southbound King Edward at Pacific,49.92346085280055,-97.20692142605068,Removed
875,20022,Northbound King Edward at Pacific,49.9232758824646,-97.20659391090842,Removed
876,20023,Southbound King Edward at Elgin,49.92169799742224,-97.20693110326958,Unchanged
877,20024,Northbound King Edward at Elgin,49.92159393502978,-97.2066005975534,Unchanged
878,20025,Southbound King Edward at Bannatyne,49.91971895598095,-97.20692093542252,Removed
879,20026,Northbound King Edward at Bannatyne,49.91984884314512,-97.20659569373828,Removed
880,20027,Southbound King Edward at Legion,49.91794710973983,-97.2069309418042,Unchanged
881,20028,Northbound King Edward at Legion,49.91785203732981,-97.20660012797988,Unchanged
882,20029,Westbound Notre Dame at St. James,49.916546644419824,-97.19957187198854,Unchanged
883,20030,Eastbound Notre Dame at Becker,49.916340846916555,-97.20022033714216,Unchanged
884,20031,Westbound Notre Dame at Tentler,49.91652741033422,-97.20238654648158,Unchanged
885,20032,Eastbound Notre Dame at Tentler,49.91636581102285,-97.20240648650584,Unchanged
886,20033,Westbound Notre Dame at King Edward,49.91653924775037,-97.20604982374432,Removed
887,20034,Northbound King Edward at Notre Dame,49.917087260299986,-97.20658671088674,Unchanged
888,20035,Southbound King Edward at Notre Dame,49.91685848544286,-97.20691560206065,Removed
889,20036,Eastbound Notre Dame at King Edward,49.916353828722436,-97.20743581744262,Unchanged
890,20037,Westbound Sargent at King Edward,49.89810573315667,-97.20702601251146,Removed
891,20038,Eastbound Notre Dame at Sherwin,49.91637131260642,-97.21147499359022,Removed
892,20039,Westbound Notre Dame at Sherwin,49.916533300459164,-97.2108978505842,Removed
893,20040,Westbound Wellington at Canada Post,49.90181420077963,-97.21534175516894,Unchanged
894,20041,Eastbound Wellington at Canada Post,49.90158173079488,-97.2148489917175,Unchanged
895,20043,Eastbound Stevenson at Sherwin,49.91408626238919,-97.21261819735884,Removed
896,20044,Westbound Stevenson at Sherwin,49.9141860097796,-97.21267022853364,Removed
897,20045,Southbound Sherwin at Dublin,49.91238732810727,-97.21152487963508,Removed
898,20046,Westbound Dublin at Sherwin,49.91195900139884,-97.21116463767424,Unchanged
899,20047,Eastbound Dublin at Sherwin,49.911743965320525,-97.20947324460626,Unchanged
900,20048,Westbound Dublin at King Edward West,49.91185447594996,-97.2078951603029,Removed
901,20049,Eastbound Dublin at King Edward,49.91166110313514,-97.20702479657348,Removed
902,20050,Southbound King Edward at Dublin,49.91132604403967,-97.20629898657228,Removed
903,20051,Southbound King Edward at Powell,49.91317326039615,-97.20650904056282,Removed
904,20052,Northbound King Edward at Powell,49.91408719801971,-97.2062801170338,Removed
905,20053,Westbound Dublin at St. James,49.91153784561346,-97.19966090339744,Unchanged
906,20054,Eastbound Dublin at Border,49.91142204055974,-97.20089096904638,Unchanged
907,20055,Westbound Dublin at Border,49.911642517624074,-97.20234531750587,Removed
908,20056,Eastbound Dublin at King Edward East,49.91154560695718,-97.20421541311042,Unchanged
909,20057,Westbound Dublin at King Edward,49.9117761107466,-97.20573905339704,Unchanged
910,20058,Northbound King Edward at Dublin,49.91158200273788,-97.20598305113744,Removed
911,20059,Southbound King Edward at Saskatchewan North,49.90727424153227,-97.20661642713829,Removed
912,20060,Southbound King Edward at Saskatchewan,49.9052352851816,-97.20680346263173,Removed
913,20062,Southbound King Edward at Wellington,49.90165202318482,-97.2071730691664,Removed
914,20063,Southbound King Edward at Wellington South,49.90091550656631,-97.20724214896752,Removed
915,20064,Northbound Roseberry at St. Matthews,49.89127038368617,-97.21522948114806,Removed
916,20065,Northbound Century at Wellington,49.90166746863388,-97.20236795837197,Removed
917,20066,Northbound Roseberry at Ellice,49.89434212221112,-97.21493514388166,Removed
918,20067,Northbound Century at Wellington North,49.90389563441526,-97.20220157317236,Removed
919,20068,Northbound Century at Saskatchewan,49.904982963688,-97.20213329561152,Removed
920,20069,Northbound Century at Saskatchewan North,49.90821428904576,-97.20458984528078,Removed
921,20070,Westbound Wellington at Airport Terminal,49.90533905892906,-97.22404153960866,Unchanged
922,20072,Westbound Wellington at Airport Terminal (D13),49.90540732485795,-97.22438721374928,Unchanged
923,20073,Eastbound Wellington at Berry West,49.90150088569726,-97.2119414128316,Unchanged
924,20074,Westbound Wellington at Berry West,49.90172158451603,-97.21225355605056,Removed
925,20075,Eastbound Wellington at Berry,49.90141958794076,-97.20959090444744,Unchanged
926,20076,Westbound Wellington at Berry,49.901585175631624,-97.20866564736076,Removed
927,20077,Eastbound Wellington at King Edward,49.901356159099365,-97.2066548446609,Unchanged
928,20078,Westbound Wellington at King Edward,49.90151732860684,-97.20660709001083,Unchanged
929,20079,Eastbound Wellington at Bradford,49.90128072150796,-97.20410916822392,Removed
930,20080,Westbound Wellington at Bradford,49.90145649219267,-97.2044229425393,Removed
931,20081,Westbound Wellington at Century,49.90141886379085,-97.20315706194307,Removed
932,20082,Eastbound Sargent at St. James,49.89773499273881,-97.20052282395646,Removed
933,20083,Westbound Sargent at Century,49.897964762377434,-97.20257519603577,Removed
934,20084,Eastbound Sargent at Century,49.8978173370386,-97.20292880161414,Removed
935,20086,Northbound Berry at Sargent,49.89797390862108,-97.20955134735377,Unchanged
936,20087,Southbound Berry at Sargent,49.89828235989482,-97.20972095754787,Unchanged
937,20088,Eastbound Ellice at St. James,49.89414297738712,-97.20090707359724,Unchanged
938,20089,Westbound Ellice at Century,49.89436158881297,-97.20282046894955,Unchanged
939,20090,Eastbound Ellice at Century,49.8942167538919,-97.20334103955808,Unchanged
940,20091,Westbound Ellice at Century West,49.89443870556708,-97.20489229746414,Removed
941,20092,Eastbound Ellice at Century West,49.89427415597528,-97.2053022014036,Removed
942,20093,Westbound Ellice at King Edward,49.8945134756488,-97.20739586731162,Unchanged
943,20094,Eastbound Ellice at King Edward,49.89436135332789,-97.20802808831009,Unchanged
944,20095,Westbound Ellice at Berry,49.89457661963212,-97.20973278473323,Removed
945,20096,Northbound Berry at Ellice,49.894856810224574,-97.20981988513036,Unchanged
946,20097,Southbound Berry at Ellice,49.894671036314584,-97.21002169830048,Unchanged
947,20098,Eastbound Ellice at Berry,49.894436270523734,-97.21054557692852,Removed
948,20099,Westbound Ellice at Marjorie,49.89466306809701,-97.21241695068814,Unchanged
949,20100,Eastbound Ellice at Marjorie,49.89450619247831,-97.21274300240188,Unchanged
950,20101,Westbound Ellice at Roseberry,49.8947331691784,-97.2146283063552,Unchanged
951,20102,Eastbound Ellice at Roseberry,49.89457907631914,-97.21513526247696,Unchanged
952,20103,Westbound Ellice at Ferry,49.894793166468894,-97.2167704193944,Removed
953,20104,Northbound Ferry at Ellice,49.89411059108384,-97.21742216031156,Unchanged
954,20105,Westbound Sargent at Berry,49.898179167706154,-97.20944627320848,Removed
955,20106,Southbound Ferry at Ellice,49.89407763108153,-97.21761831074168,Unchanged
956,20107,Southbound Ferry at St. Matthews,49.89149047950942,-97.21783893314723,Unchanged
957,20108,Northbound Ferry at St. Matthews,49.890867180125554,-97.2176669694265,Unchanged
958,20109,Westbound Sargent at Ferry East,49.89835244909535,-97.21484284909782,Unchanged
959,20110,Westbound Sargent at Flight,49.89846233659139,-97.21847328607367,Unchanged
960,20111,Westbound Silver at Ferry,49.88802574032938,-97.217729868502,Unchanged
961,20112,Eastbound Silver at Ferry,49.88788746492085,-97.21751220623582,Unchanged
962,20113,Eastbound Silver at Roseberry,49.88781508096123,-97.2157328319778,Removed
963,20114,Westbound Silver at Roseberry,49.88793579189147,-97.21539424731408,Unchanged
964,20115,Eastbound Silver at Parkview,49.88772401865452,-97.21332765450006,Unchanged
965,20116,Westbound Silver at Marjorie,49.887835303087066,-97.21296156812492,Removed
966,20117,Eastbound Silver at Berry,49.88764297125998,-97.21099172599745,Unchanged
967,20118,Northbound Berry at Silver,49.88745543314623,-97.2104974641675,Unchanged
968,20119,Southbound Berry at Ness,49.88406308102816,-97.21099877921534,Unchanged
969,20120,Southbound Berry at Portage,49.878978698113904,-97.21143726263831,Unchanged
970,20121,Northbound Flight at Standard Aero,49.900410996931846,-97.21884713583674,Removed
971,20122,Southbound Flight at Sargent,49.89863464503364,-97.21914927960964,Unchanged
972,20123,Eastbound Sargent at Ferry East,49.898182715071385,-97.214918739287,Unchanged
973,20124,Westbound Ness at Madison,49.88360037475074,-97.20319228629702,Unchanged
974,20125,Westbound Ness at Queen,49.88378862602199,-97.2077931639564,Unchanged
975,20127,Westbound Ness at Berry,49.88392393313781,-97.21072550151958,Unchanged
976,20128,Westbound Ness at Marjorie,49.88402790250783,-97.21338058927844,Removed
977,20129,Westbound Ness at Parkview,49.88409197481843,-97.21520189115472,Unchanged
978,20130,Westbound Ness at Collegiate,49.8841654368687,-97.21705069388062,Removed
979,20131,Westbound Ness at Rutland,49.88430135797041,-97.22062342915947,Removed
980,20132,Westbound Ness at Sackville,49.88439034464458,-97.22290323412832,Unchanged
981,20133,Westbound Ness at Albany,49.88447694009097,-97.22503000125975,Removed
982,20134,Westbound Ness at Winchester,49.884622243375546,-97.22864419963037,Unchanged
983,20135,Westbound Ness at Mandeville,49.88472601413852,-97.23131328828885,Removed
984,20136,Westbound Ness at Woodlawn,49.88482009667864,-97.23394097735964,Unchanged
985,20137,Westbound Ness at Air Force,49.88495316626988,-97.2373607718701,Unchanged
986,20138,Westbound Ness at Conway,49.88506889834854,-97.24023828087864,Removed
987,20139,Westbound Ness at Mount Royal,49.88525406808085,-97.24532678776644,Unchanged
988,20140,Westbound Ness at Strathmillan,49.885382230385595,-97.24903916871172,Unchanged
989,20141,Westbound Ness at Whytewold,49.88559796928926,-97.2543911438539,Unchanged
990,20142,Westbound Ness at Rita,49.88570741315322,-97.25687915091407,Removed
991,20143,Westbound Ness at Braintree,49.88583813227353,-97.26018777593175,Unchanged
992,20144,Eastbound Sargent at Berry,49.89802402239848,-97.20988369575991,Unchanged
993,20145,Eastbound Sargent at Bradford,49.897877768414055,-97.20508494804469,Removed
994,20146,Northbound Saulteaux at Saulteaux A,49.89617984732952,-97.26062347982143,Unchanged
995,20147,Eastbound Wellington at Flight,49.90099448096332,-97.21993972657808,Unchanged
996,20148,Northbound Saulteaux at Saulteaux D,49.89828310319789,-97.26051999867468,Unchanged
997,20149,Westbound Logan at Keewatin,49.92193254955567,-97.19597181474306,Removed
998,20150,Southbound Saulteaux at Saulteaux F,49.89503345825227,-97.26395081311472,Removed
999,20152,Westbound Murray Park at Saulteaux,49.89475761577772,-97.26595186259746,Unchanged
1000,20153,Westbound Murray Park at Cree West,49.89488241956488,-97.26948412617244,Removed
1001,20154,Eastbound Murray Park at Moray,49.89384200423744,-97.2618771408106,Removed
1002,20156,Westbound Ness at Moray,49.88594472413079,-97.26309355737092,Unchanged
1003,20157,Westbound Ness at Wallasey,49.88602033996477,-97.2651373207604,Unchanged
1004,20158,Westbound Ness at Harcourt,49.88656765251899,-97.26925246440402,Unchanged
1005,20159,Westbound Ness at Prairie View,49.88748811182673,-97.27246337512396,Unchanged
1006,20160,Westbound Ness at Sturgeon,49.88800866030761,-97.2790299785938,Unchanged
1007,20161,Westbound Ness at Pebblewood,49.88806260164132,-97.28145051992496,Removed
1008,20162,Westbound Ness at Heritage,49.88812704711366,-97.28336949449334,Unchanged
1009,20163,Westbound Ness at Valley View,49.88823326368663,-97.28628939380832,Unchanged
1010,20164,Westbound Ness at School,49.88814012481593,-97.28850632157352,Unchanged
1011,20165,Westbound Ness at Vimy,49.888197359080735,-97.29116343921146,Unchanged
1012,20166,Westbound Ness at Parkdale,49.88828293821217,-97.29391701865944,Removed
1013,20167,Westbound Ness at Muriel,49.88861814712532,-97.29713517872644,Unchanged
1014,20168,Eastbound Ness at Muriel,49.88837578588767,-97.29594639416082,Unchanged
1015,20169,Eastbound Ness at Parkdale,49.88818407493199,-97.29453308120416,Removed
1016,20170,Eastbound Ness at Vimy,49.88808541431328,-97.2915015247472,Unchanged
1017,20171,Eastbound Ness at School,49.888022223726466,-97.28844088091192,Unchanged
1018,20172,Eastbound Ness at Kirby,49.88808687527718,-97.2855149360398,Unchanged
1019,20173,Eastbound Ness at Pebblewood,49.887954195540374,-97.28202517817424,Unchanged
1020,20174,Eastbound Ness at Sturgeon,49.8878443554658,-97.2788687567326,Unchanged
1021,20175,Eastbound Ness at Prairie View,49.88721300956623,-97.27211122578566,Unchanged
1022,20176,Eastbound Ness at Harcourt,49.88652998058015,-97.26974107321148,Unchanged
1023,20177,Eastbound Ness at Wallasey,49.88583219729329,-97.26458720332523,Unchanged
1024,20178,Eastbound Ness at Moray,49.88574403194808,-97.26230723306554,Unchanged
1025,20179,Eastbound Ness at Braintree,49.88562215439311,-97.25898436979202,Unchanged
1026,20180,Eastbound Ness at Rita,49.88552090782144,-97.25644038156726,Removed
1027,20181,Eastbound Ness at Whytewold,49.885421493791874,-97.2540216303748,Unchanged
1028,20182,Eastbound Ness at Strathmillan,49.88518959117144,-97.2481969336982,Unchanged
1029,20183,Eastbound Ness at Mount Royal,49.88505009121179,-97.24433184578288,Unchanged
1030,20184,Eastbound Ness at Conway,49.884909827776525,-97.2404250425538,Removed
1031,20185,Eastbound Ness at Sharp,49.88480690260975,-97.237797659579,Unchanged
1032,20186,Eastbound Ness at Woodlawn,49.88462925908342,-97.2332240365417,Unchanged
1033,20187,Eastbound Ness at Mandeville,49.88456802093014,-97.2315696449398,Removed
1034,20188,Eastbound Ness at Winchester,49.88446446902127,-97.2289144777073,Unchanged
1035,20189,Eastbound Ness at Albany,49.884347602705304,-97.2259813855306,Removed
1036,20190,Eastbound Ness at Sackville,49.8842144105472,-97.22257558712369,Unchanged
1037,20191,Eastbound Ness at Rutland,49.88414381645242,-97.2209076443512,Removed
1038,20192,Eastbound Ness at Ferry,49.88406356634171,-97.21861361153472,Unchanged
1039,20193,Eastbound Ness at Roseberry,49.88396207545784,-97.21611155244136,Unchanged
1040,20194,Eastbound Ness at Marjorie,49.88387059372613,-97.2136787390932,Removed
1041,20195,Eastbound Ness at Berry,49.88377841592878,-97.21120419699967,Unchanged
1042,20196,Northbound Berry at Ness,49.88361999878579,-97.21084810669632,Unchanged
1043,20197,Eastbound Ness at Queen,49.883625301456334,-97.2077017653898,Unchanged
1044,20198,Eastbound Ness at Kensington,49.88344993052492,-97.20509112160994,Unchanged
1045,20199,Eastbound Ness at St. James,49.883402086093376,-97.2025871269602,Removed
1046,20200,Westbound Portage at Century,49.87992577955563,-97.20405254021924,Unchanged
1047,20201,Westbound Portage at Queen,49.87928725050996,-97.20754225127772,Unchanged
1048,20202,Westbound Portage at Woodlands,49.87994024158453,-97.28084805586418,Removed
1049,20205,Westbound Portage at Berry,49.87897547397481,-97.21122858693504,Unchanged
1050,20206,Westbound Portage at Marjorie,49.878844857501655,-97.21442100615526,Unchanged
1051,20207,Westbound Portage at Collegiate,49.87877643917789,-97.21756935803432,Removed
1052,20208,Westbound Portage at Inglewood,49.87873577408425,-97.21960311383934,Unchanged
1053,20209,Westbound Portage at Amherst,49.8786785727551,-97.22231953166568,Unchanged
1054,20210,Westbound Portage at Albany,49.878642273206545,-97.22523004949834,Removed
1055,20211,Westbound Portage at Linwood,49.878232415533894,-97.22783408977534,Unchanged
1056,20212,Westbound Portage at Overdale (Assiniboine Park),49.87741363872747,-97.23075925603496,Unchanged
1057,20213,Westbound Portage at Belvidere,49.87734052897095,-97.23362927486262,Removed
1058,20214,Westbound Portage at Woodlawn,49.87732273373179,-97.23541157547707,Unchanged
1059,20215,Westbound Portage at Sharp,49.877061239572264,-97.2377316739278,Unchanged
1060,20216,Westbound Portage at Conway,49.87668736968853,-97.24094664586552,Unchanged
1061,20217,Westbound Portage at Mount Royal East,49.876396768639594,-97.24372706174952,Removed
1062,20218,Westbound Portage at Mount Royal,49.87622451103311,-97.24541748877122,Unchanged
1063,20219,Westbound Portage at Traill,49.8759948977933,-97.24866888048966,Removed
1064,20220,Westbound Portage at Strathmillan,49.87581677812699,-97.25116677133288,Unchanged
1065,20221,Westbound Portage at Whytewold,49.87552616932839,-97.25455949210526,Unchanged
1066,20222,Westbound Portage at Rita,49.87512884385355,-97.25863801719753,Unchanged
1067,20223,Westbound Portage at Moray,49.87552208530534,-97.2626602654768,Removed
1068,20224,Westbound Portage at Aldine,49.875992435164086,-97.26463376364546,Removed
1069,20225,Westbound Portage at Thompson,49.87651627583698,-97.26657754655608,Unchanged
1070,20226,Westbound Portage at Harcourt,49.8773163971498,-97.26955542151664,Removed
1071,20227,Westbound Portage at Woodhaven,49.87799355049165,-97.27213412267186,Unchanged
1072,20228,Westbound Portage at Booth,49.87852957458864,-97.27430034204016,Removed
1073,20230,Westbound Portage at Sturgeon,49.87947233020556,-97.27841480569806,Unchanged
1074,20231,Westbound Portage at Country Club,49.88031881906557,-97.28332628080786,Unchanged
1075,20232,Westbound Portage at Greenway,49.88078628759561,-97.2863442788684,Unchanged
1076,20233,Westbound Portage at Banting,49.881407591562024,-97.29003898972262,Unchanged
1077,20234,Westbound Portage at Vimy,49.881667829654035,-97.29182551793134,Removed
1078,20235,Westbound Portage at Parkhill,49.88199773754506,-97.29406898258354,Unchanged
1079,20236,Westbound Portage at Muriel,49.88233290718424,-97.29606172285834,Unchanged
1080,20237,Westbound Portage at Rouge,49.88285174065331,-97.2995375422402,Unchanged
1081,20238,Westbound Portage at Sumach,49.88315431192313,-97.30238066380288,Removed
1082,20239,Eastbound Portage at Westwood,49.88150197861926,-97.29277795032618,Unchanged
1083,20240,Westbound Portage at Raquette,49.883110728329015,-97.30431717386814,Unchanged
1084,20241,Westbound Portage at Bedson,49.88284597975315,-97.30712450029768,Unchanged
1085,20242,Westbound Portage at David,49.882612046328425,-97.30958270476516,Removed
1086,20243,Westbound Portage at Knox,49.88228139774521,-97.3121973832104,Unchanged
1087,20245,Eastbound Unicity at Unicity Hub,49.88416625671007,-97.31253535903248,Unchanged
1088,20246,Westbound Portage at Buchanan,49.881766984813986,-97.31640534085923,Unchanged
1089,20247,Westbound Portage at Stewart,49.88148567891877,-97.31871196624844,Unchanged
1090,20248,Eastbound Portage at St. Charles,49.8811832388334,-97.31894519454308,Unchanged
1091,20249,Eastbound Portage at Buchanan,49.88141525924236,-97.31696046432492,Unchanged
1092,20251,Eastbound Portage at David,49.882055690404584,-97.31152315389213,Unchanged
1093,20252,Eastbound Portage at Bedson,49.88250963656057,-97.3074981992486,Unchanged
1094,20253,Eastbound Portage at Seaton,49.88286167326596,-97.30389435954744,Unchanged
1095,20254,Eastbound Portage at Rouge,49.88249560270459,-97.29917420007838,Unchanged
1096,20255,Eastbound Portage at Muriel,49.882174578993336,-97.29691644554694,Unchanged
1097,20256,Eastbound Portage at Parkdale,49.88179813551732,-97.2945632306416,Removed
1098,20257,Eastbound Portage at Banting,49.880883789336686,-97.28867940485485,Unchanged
1099,20258,Eastbound Portage at Daer,49.88065623679378,-97.28728152623736,Removed
1100,20259,Eastbound Portage at Golf,49.88042660767944,-97.28574453432526,Unchanged
1101,20260,Eastbound Portage at Country Club,49.88002948258196,-97.28322518374556,Unchanged
1102,20261,Eastbound Portage at Woodlands,49.87957175008747,-97.2802625950263,Removed
1103,20262,Eastbound Portage at Sturgeon,49.87924189534008,-97.2786457160217,Unchanged
1104,20263,Eastbound Portage at Oakdean,49.87870574485639,-97.276465502678,Removed
1105,20264,Eastbound Portage at Woodhaven,49.87784418188968,-97.2729746095716,Unchanged
1106,20265,Eastbound Portage at Old Mill,49.877276799274384,-97.27051725440197,Removed
1107,20266,Eastbound Portage at Windham,49.87614309830389,-97.26628469644238,Unchanged
1108,20268,Eastbound Portage at Moray,49.8748384414141,-97.26145998059263,Unchanged
1109,20269,Eastbound Portage at Rita,49.874926657715555,-97.2577545104132,Unchanged
1110,20270,Eastbound Portage at Olive,49.875083002575224,-97.25619001423424,Removed
1111,20272,Eastbound Portage at Whytewold,49.87521508212175,-97.25480732330718,Unchanged
1112,20273,Eastbound Portage at Vernon,49.87541213910352,-97.25296296728612,Removed
1113,20274,Eastbound Portage at Strathmillan,49.87557610152187,-97.25071615133592,Removed
1114,20275,Eastbound Portage at Mount Royal West,49.875691551251585,-97.24883296019988,Unchanged
1115,20276,Eastbound Portage at Mount Royal,49.87591302255156,-97.24563755973205,Unchanged
1116,20277,Eastbound Portage at Conway,49.87637758076632,-97.2412780370898,Unchanged
1117,20278,Eastbound Portage at Sharp,49.876711802617166,-97.23841250582608,Unchanged
1118,20279,Eastbound Portage at Woodlawn,49.87707881485054,-97.23475235139198,Unchanged
1119,20281,Eastbound Portage at Deer Lodge,49.878035959622224,-97.22734018519934,Unchanged
1120,20282,Eastbound Portage at Albany,49.87831902828633,-97.22585435725608,Removed
1121,20283,Eastbound Portage at Amherst,49.87839943914166,-97.2228865621538,Unchanged
1122,20284,Eastbound Portage at Rutland,49.87844080362587,-97.22089455664108,Removed
1123,20285,Eastbound Portage at Ferry,49.87847614007003,-97.21909764219524,Unchanged
1124,20286,Eastbound Portage at Roseberry,49.878527490627725,-97.21659023951382,Removed
1125,20287,Eastbound Portage at Riveroaks,49.878588205761815,-97.21411032448154,Unchanged
1126,20288,Eastbound Portage at Cavell,49.878633896379405,-97.21182583156131,Unchanged
1127,20289,Eastbound Portage at King Edward,49.87882892629881,-97.20931309581913,Removed
1128,20290,Eastbound Portage at Garden,49.879106533613495,-97.20690863749952,Unchanged
1129,20291,Eastbound Portage at Kintyre,49.87966823704587,-97.20368626005576,Unchanged
1130,20292,Northbound Booth at Lodge (Assiniboine Clinic),49.8803224203264,-97.2738884220364,Removed
1131,20293,"Westbound Pearl McGonigal at Grace Hospital (220, 883, 885)",49.8817162882724,-97.2756761994599,Unchanged
1132,20294,Northbound Sturgeon at Caron,49.88461801652961,-97.2784544982216,Unchanged
1133,20295,Southbound Sturgeon at Caron,49.884253556923845,-97.27874588491136,Unchanged
1134,20296,Southbound Sturgeon at Portage North,49.88135200724553,-97.27900219833376,Unchanged
1135,20298,"Westbound Pearl McGonigal at Grace Hospital (11, 21)",49.881749681233785,-97.2761065412762,Removed
1136,20300,Northbound Sturgeon at Thornton,49.8906195111994,-97.27797643336685,Unchanged
1137,20301,Southbound Sturgeon at Thornton,49.89055131484424,-97.27822947276074,Unchanged
1138,20302,Northbound Sturgeon at Silver South,49.89246104342464,-97.27781342414222,Removed
1139,20303,Southbound Sturgeon at Silver South,49.89303972444852,-97.27801560266464,Removed
1140,20304,Eastbound Unicity at Unicity Terminal (70),49.88417849118031,-97.312757668831,Unchanged
1141,20305,Eastbound Unicity at Unicity Terminal (D15),49.88418680234593,-97.31332814115667,Unchanged
1142,20306,Eastbound Hamilton at Sonnichsen,49.89812185562692,-97.28772149197974,Unchanged
1143,20307,Westbound Hamilton at Sonnichsen,49.89808184344073,-97.28805710974976,Unchanged
