,stop_id,stop_code,stop_name,stop_lat,stop_lon,stop_url,is_freq
0,10001,10001,Southbound Osborne at Mulvey,49.87126079164335,-97.1395184825284,http://www.winnipegtransit.com/stops/10001,False
1,10002,10002,Southbound Osborne at Woodward,49.86881850124874,-97.13755263735648,http://www.winnipegtransit.com/stops/10002,False
2,10003,10003,Southbound Osborne at Brandon,49.86787982449569,-97.13679549876352,http://www.winnipegtransit.com/stops/10003,False
3,10004,10004,Southbound Osborne at Hethrington,49.866522026651005,-97.1357066180771,http://www.winnipegtransit.com/stops/10004,False
4,10005,10005,Southbound Osborne at Morley,49.865163994792965,-97.1346038905436,http://www.winnipegtransit.com/stops/10005,False
5,10006,10006,Southbound Osborne at Kylemore,49.86325019276681,-97.13306344112284,http://www.winnipegtransit.com/stops/10006,False
6,10007,10007,Southbound Osborne at Ashland,49.86106287002816,-97.13129711504052,http://www.winnipegtransit.com/stops/10007,False
7,10008,10008,Southbound Osborne at Jubilee,49.859814917782366,-97.13032952377256,http://www.winnipegtransit.com/stops/10008,False
8,10009,10009,Southbound Osborne at Montague,49.857798129847104,-97.12854293933007,http://www.winnipegtransit.com/stops/10009,False
9,10010,10010,Northbound Eccles at Clare,49.863344479060856,-97.1177808338334,http://www.winnipegtransit.com/stops/10010,False
10,10011,10011,Northbound Eccles at Balfour,49.864088900118915,-97.11875381623238,http://www.winnipegtransit.com/stops/10011,False
11,10012,10012,Southbound Eccles at Balfour,49.86411026941578,-97.11896171866242,http://www.winnipegtransit.com/stops/10012,False
12,10013,10013,Southbound Eccles at Ashland,49.86476677227488,-97.1195067610404,http://www.winnipegtransit.com/stops/10013,False
13,10014,10014,Northbound Eccles at Ashland,49.86512883405248,-97.1196457748323,http://www.winnipegtransit.com/stops/10014,False
14,10017,10017,Northbound Eccles at Oakwood,49.866541392065265,-97.12077379976031,http://www.winnipegtransit.com/stops/10017,False
15,10018,10018,Southbound Eccles at Oakwood,49.86665332932752,-97.12101994777562,http://www.winnipegtransit.com/stops/10018,False
16,10021,10021,Northbound Eccles at Bartlet,49.86819059799425,-97.12207362695938,http://www.winnipegtransit.com/stops/10021,False
17,10022,10022,Southbound Eccles at Bartlet,49.86828545625278,-97.12237611534658,http://www.winnipegtransit.com/stops/10022,False
18,10023,10023,Northbound Eccles at Morley,49.86896507712801,-97.122683765846,http://www.winnipegtransit.com/stops/10023,False
19,10024,10024,Eastbound Morley at Eccles,49.86884576657141,-97.12309198079828,http://www.winnipegtransit.com/stops/10024,False
20,10025,10025,Westbound Morley at Mabel,49.86838896714752,-97.1248771124813,http://www.winnipegtransit.com/stops/10025,False
21,10026,10026,Eastbound Morley at Mabel,49.86816806156839,-97.12512225063858,http://www.winnipegtransit.com/stops/10026,False
22,10027,10027,Westbound Morley at Fisher,49.867737298197554,-97.12685066430342,http://www.winnipegtransit.com/stops/10027,False
23,10028,10028,Eastbound Morley at Fisher,49.86743885884135,-97.12730753574589,http://www.winnipegtransit.com/stops/10028,False
24,10029,10029,Westbound Morley at Casey,49.8668532204428,-97.12947329217964,http://www.winnipegtransit.com/stops/10029,False
25,10030,10030,Eastbound Morley at Casey,49.86676961806647,-97.12930952663837,http://www.winnipegtransit.com/stops/10030,False
26,10031,10031,Eastbound Morley at Hay,49.86626350639666,-97.130832018601,http://www.winnipegtransit.com/stops/10031,False
27,10032,10032,Westbound Morley at Hay,49.86608977178946,-97.13177110064656,http://www.winnipegtransit.com/stops/10032,False
28,10033,10033,Westbound Morley at Osborne,49.86531795958643,-97.13411090553032,http://www.winnipegtransit.com/stops/10033,False
29,10034,10034,Eastbound Morley at Osborne,49.865225598472506,-97.13396139049556,http://www.winnipegtransit.com/stops/10034,False
30,10035,10035,Westbound Morley at Nassau,49.864056527892096,-97.13788885364536,http://www.winnipegtransit.com/stops/10035,False
31,10036,10036,Eastbound Morley at Nassau,49.86376658562313,-97.13831746375344,http://www.winnipegtransit.com/stops/10036,False
32,10037,10037,Westbound Morley at Daly,49.86308699048547,-97.1408065758905,http://www.winnipegtransit.com/stops/10037,False
33,10038,10038,Northbound Daly at Morley (95 to Riverview via Ft Rouge Station),49.86282651776286,-97.14083049052864,http://www.winnipegtransit.com/stops/10038,False
34,10039,10039,Southbound Daly at Kylemore,49.86137098968443,-97.13981493409268,http://www.winnipegtransit.com/stops/10039,False
35,10040,10040,Northbound Daly at Kylemore,49.86110425861084,-97.13944948419524,http://www.winnipegtransit.com/stops/10040,False
36,10041,10041,Eastbound Rathgar at Daly,49.859879047722984,-97.13877300818372,http://www.winnipegtransit.com/stops/10041,False
37,10042,10042,Southbound Daly at Beresford,49.8593934337199,-97.13822119004028,http://www.winnipegtransit.com/stops/10042,False
38,10043,10043,Westbound Beresford at Cockburn,49.857908237494435,-97.1420767146433,http://www.winnipegtransit.com/stops/10043,False
39,10044,10044,Northbound Cockburn at Rathgar,49.85851248257484,-97.14273531657744,http://www.winnipegtransit.com/stops/10044,False
40,10045,10045,Southbound Cockburn at Rosedale,49.85699426711564,-97.1417361082822,http://www.winnipegtransit.com/stops/10045,False
41,10046,10046,Northbound Cockburn at Rosedale,49.857336985691546,-97.1417925281746,http://www.winnipegtransit.com/stops/10046,False
42,10047,10047,Southbound Cockburn at Jubilee,49.85621067256511,-97.14111224788108,http://www.winnipegtransit.com/stops/10047,False
43,10048,10048,Northbound Cockburn at Jubilee,49.856343728884,-97.14099583595284,http://www.winnipegtransit.com/stops/10048,False
44,10049,10049,Westbound Jubilee at Riverdale,49.85532090632452,-97.14340028869884,http://www.winnipegtransit.com/stops/10049,False
45,10050,10050,Eastbound Jubilee at Riverdale,49.85544147094654,-97.14250523719168,http://www.winnipegtransit.com/stops/10050,False
46,10051,10051,Westbound Jubilee at Lilac,49.85477099142812,-97.14500742201072,http://www.winnipegtransit.com/stops/10051,False
47,10052,10052,Eastbound Jubilee at Lilac,49.85465122999685,-97.14483114215784,http://www.winnipegtransit.com/stops/10052,False
48,10053,10053,Eastbound Jubilee at Riverside,49.85419617138107,-97.14618418007232,http://www.winnipegtransit.com/stops/10053,False
49,10054,10054,Westbound Jubilee at Riverside,49.85426444286292,-97.14651547081624,http://www.winnipegtransit.com/stops/10054,False
50,10055,10055,Westbound Jubilee at Riverside West,49.85370727385865,-97.14823410995984,http://www.winnipegtransit.com/stops/10055,False
51,10056,10056,Eastbound Jubilee at Riverside West,49.853294772790775,-97.14887593322446,http://www.winnipegtransit.com/stops/10056,False
52,10057,10057,Northbound Osborne at Wavell,49.85808421877715,-97.128434489488,http://www.winnipegtransit.com/stops/10057,False
53,10058,10058,Northbound Osborne at Balfour,49.860128650723894,-97.13026175549768,http://www.winnipegtransit.com/stops/10058,False
54,10059,10059,Northbound Osborne at Baltimore,49.86177820225123,-97.13158955493624,http://www.winnipegtransit.com/stops/10059,False
55,10060,10060,Northbound Osborne at Maplewood,49.86331874363638,-97.13285206958416,http://www.winnipegtransit.com/stops/10060,False
56,10061,10061,Northbound Osborne at Morley,49.86508647491589,-97.13425898259815,http://www.winnipegtransit.com/stops/10061,False
57,10062,10062,Northbound Osborne at Hethrington,49.86663575367936,-97.13550741262756,http://www.winnipegtransit.com/stops/10062,False
58,10063,10063,Northbound Osborne at Brandon,49.868185019459986,-97.1367559215614,http://www.winnipegtransit.com/stops/10063,False
59,10064,10064,Northbound Osborne at Glasgow,49.86910549368015,-97.13749984727306,http://www.winnipegtransit.com/stops/10064,False
60,10065,10065,Northbound Osborne at Mulvey,49.87193947531293,-97.13977075612964,http://www.winnipegtransit.com/stops/10065,False
61,10066,10066,Northbound Osborne at Osborne Junction,49.875128246779894,-97.14229276290868,http://www.winnipegtransit.com/stops/10066,False
62,10067,10067,Southbound Osborne at Osborne Junction,49.87466012253285,-97.14226897185502,http://www.winnipegtransit.com/stops/10067,False
63,10068,10068,Southbound Pembina at Osborne Junction,49.87456972006579,-97.142801343363,http://www.winnipegtransit.com/stops/10068,False
64,10070,10070,Southbound Pembina at Warsaw,49.8718722879166,-97.14399040241452,http://www.winnipegtransit.com/stops/10070,False
65,10071,10071,Northbound Pembina at Nassau,49.87101605281816,-97.1438840520329,http://www.winnipegtransit.com/stops/10071,False
66,10072,10072,Southbound Pembina at Fleet,49.869597348869625,-97.14516313949728,http://www.winnipegtransit.com/stops/10072,False
67,10073,10073,Northbound Pembina at Daly,49.868433835110814,-97.14552779552844,http://www.winnipegtransit.com/stops/10073,False
68,10075,10075,Southbound Pembina at Scotland,49.8657527058665,-97.14717514414842,http://www.winnipegtransit.com/stops/10075,True
69,10076,10076,Northbound Pembina at Scotland,49.8659332479856,-97.14665334451614,http://www.winnipegtransit.com/stops/10076,True
70,10077,10077,Northbound Pembina at Grant,49.8643694281962,-97.14729764710935,http://www.winnipegtransit.com/stops/10077,False
71,10078,10078,Southbound Pembina at Grant,49.8642333855791,-97.1477898943185,http://www.winnipegtransit.com/stops/10078,False
72,10079,10079,Southbound Pembina at Arbuthnot,49.86256791196633,-97.14882764298224,http://www.winnipegtransit.com/stops/10079,False
73,10080,10080,Northbound Pembina at Arbuthnot,49.86264058739672,-97.14831000850648,http://www.winnipegtransit.com/stops/10080,False
74,10081,10081,Southbound Pembina at Ebby,49.86088533775143,-97.14992162993975,http://www.winnipegtransit.com/stops/10081,False
75,10082,10082,Northbound Pembina at Jackson,49.85965643356954,-97.1501355412721,http://www.winnipegtransit.com/stops/10082,False
76,10083,10083,Northbound Pembina at Taylor,49.858382256498274,-97.15089380848178,http://www.winnipegtransit.com/stops/10083,False
77,10085,10085,Northbound Pembina at Stafford,49.85652863546824,-97.15198023704131,http://www.winnipegtransit.com/stops/10085,False
78,10086,10086,Southbound Pembina at Stafford,49.85689310303675,-97.15227242676562,http://www.winnipegtransit.com/stops/10086,False
79,10087,10087,Northbound Stafford at Stafford Loop,49.8573982958364,-97.15236446419968,http://www.winnipegtransit.com/stops/10087,False
80,10088,10088,Southbound Stafford at Taylor,49.85809071169907,-97.15347897808635,http://www.winnipegtransit.com/stops/10088,False
81,10089,10089,Northbound Stafford at Ebby,49.85930729462343,-97.15418395854036,http://www.winnipegtransit.com/stops/10089,False
82,10090,10090,Southbound Stafford at Ebby,49.85936655401476,-97.15451563846484,http://www.winnipegtransit.com/stops/10090,False
83,10091,10091,Northbound Stafford at Carter,49.86068334625883,-97.1553003325384,http://www.winnipegtransit.com/stops/10091,False
84,10092,10092,Southbound Stafford at Carter,49.86061497536657,-97.15552556781051,http://www.winnipegtransit.com/stops/10092,False
85,10093,10093,Northbound Stafford at Grant,49.862086577811525,-97.1564296490461,http://www.winnipegtransit.com/stops/10093,False
86,10094,10094,Southbound Stafford at Grant,49.86224648824648,-97.15686883921958,http://www.winnipegtransit.com/stops/10094,False
87,10095,10095,Northbound Stafford at Lorette,49.863408228171195,-97.15752038775958,http://www.winnipegtransit.com/stops/10095,False
88,10096,10096,Southbound Stafford at Dudley,49.863385465150394,-97.15778564341193,http://www.winnipegtransit.com/stops/10096,False
89,10097,10097,Northbound Stafford at Fleet,49.86508510920402,-97.15888990766324,http://www.winnipegtransit.com/stops/10097,False
90,10098,10098,Southbound Stafford at Fleet,49.865217157104595,-97.15927452879126,http://www.winnipegtransit.com/stops/10098,False
91,10099,10099,Northbound Stafford at Warsaw,49.8664788751777,-97.15999195447144,http://www.winnipegtransit.com/stops/10099,False
92,10100,10100,Southbound Stafford at Warsaw,49.86650149684253,-97.16028333374211,http://www.winnipegtransit.com/stops/10100,False
93,10101,10101,Northbound Stafford at Corydon,49.86798183214363,-97.16117341609116,http://www.winnipegtransit.com/stops/10101,False
94,10102,10102,Southbound Stafford at Corydon,49.86817768362978,-97.16161131012193,http://www.winnipegtransit.com/stops/10102,False
95,10103,10103,Northbound Stafford at Dorchester,49.86955801927465,-97.1624356724031,http://www.winnipegtransit.com/stops/10103,False
96,10104,10104,Southbound Stafford at Dorchester,49.86972667652312,-97.1628607003537,http://www.winnipegtransit.com/stops/10104,False
97,10105,10105,Northbound Stafford at Grosvenor,49.87045048177888,-97.16312549874168,http://www.winnipegtransit.com/stops/10105,False
98,10106,10106,Northbound Stafford at Harvard,49.872392629447205,-97.16477762196722,http://www.winnipegtransit.com/stops/10106,False
99,10107,10107,Southbound Stafford at Harvard,49.872388491041306,-97.16508397094128,http://www.winnipegtransit.com/stops/10107,False
100,10108,10108,Northbound Stafford at Kingsway,49.873368409988906,-97.1656174721763,http://www.winnipegtransit.com/stops/10108,False
101,10109,10109,Southbound Stafford at Kingsway,49.87344605767615,-97.16597640125816,http://www.winnipegtransit.com/stops/10109,False
102,10110,10110,Southbound Stafford at Academy,49.87458562578229,-97.16693535697904,http://www.winnipegtransit.com/stops/10110,False
103,10111,10111,Northbound Stafford at Academy,49.87477220526549,-97.16678910690614,http://www.winnipegtransit.com/stops/10111,False
104,10112,10112,Eastbound Academy at Stafford,49.87480688343775,-97.1672749417157,http://www.winnipegtransit.com/stops/10112,False
105,10113,10113,Westbound Academy at Stafford,49.87490973342276,-97.16752158170203,http://www.winnipegtransit.com/stops/10113,False
106,10114,10114,Eastbound Academy at Wellington Crescent,49.87692410978963,-97.16294944695169,http://www.winnipegtransit.com/stops/10114,False
107,10115,10115,Westbound Academy at Wellington Crescent,49.877233288611016,-97.16316042060242,http://www.winnipegtransit.com/stops/10115,False
108,10116,10116,Westbound Grosvenor at Arbuthnot,49.87240623915281,-97.15770684705406,http://www.winnipegtransit.com/stops/10116,False
109,10117,10117,Eastbound Grosvenor at Arbuthnot,49.87253678672985,-97.15686680669614,http://www.winnipegtransit.com/stops/10117,False
110,10118,10118,Eastbound Grosvenor at Lilac,49.871833949164035,-97.1590508032336,http://www.winnipegtransit.com/stops/10118,False
111,10119,10119,Westbound Grosvenor at Ruskin,49.87181427959084,-97.15951083411672,http://www.winnipegtransit.com/stops/10119,False
112,10120,10120,Westbound Grosvenor at Wentworth,49.871264587915185,-97.16114616124996,http://www.winnipegtransit.com/stops/10120,False
113,10121,10121,Eastbound Grosvenor at Wentworth,49.87109533198359,-97.16125001191452,http://www.winnipegtransit.com/stops/10121,False
114,10122,10122,Westbound Grosvenor at Stafford,49.87048385086711,-97.1635278337842,http://www.winnipegtransit.com/stops/10122,False
115,10123,10123,Eastbound Grosvenor at Stafford,49.870391747814246,-97.16339215480494,http://www.winnipegtransit.com/stops/10123,False
116,10124,10124,Westbound Grosvenor at Harrow,49.869874260178584,-97.1653601786066,http://www.winnipegtransit.com/stops/10124,False
117,10125,10125,Westbound Corydon at Harrow,49.86747977080107,-97.16354435612362,http://www.winnipegtransit.com/stops/10125,False
118,10126,10126,Eastbound Corydon at Stafford,49.867951838669114,-97.1615503020115,http://www.winnipegtransit.com/stops/10126,False
119,10127,10127,Westbound Corydon at Stafford,49.86823530895113,-97.16127512305748,http://www.winnipegtransit.com/stops/10127,False
120,10128,10128,Eastbound Corydon at Wentworth,49.86867336907407,-97.15940755873564,http://www.winnipegtransit.com/stops/10128,False
121,10129,10129,Westbound Corydon at Wentworth,49.86890466592027,-97.15924568118638,http://www.winnipegtransit.com/stops/10129,False
122,10130,10130,Eastbound Corydon at Lilac,49.86937732255068,-97.15729325371504,http://www.winnipegtransit.com/stops/10130,False
123,10131,10131,Westbound Portage at Dominion,49.8843339971199,-97.17819036952868,http://www.winnipegtransit.com/stops/10131,True
124,10132,10132,Southbound Vaughan at Portage,49.89152984229601,-97.14982213350824,http://www.winnipegtransit.com/stops/10132,True
125,10134,10134,Southbound Vaughan at Graham (The Bay),49.8907489587995,-97.14936468639172,http://www.winnipegtransit.com/stops/10134,True
126,10135,10135,Southbound Kennedy at Ellice,49.893920832256754,-97.1497167657392,http://www.winnipegtransit.com/stops/10135,False
127,10138,10138,Southbound Kennedy at Portage South,49.891388282812976,-97.1482820594645,http://www.winnipegtransit.com/stops/10138,False
128,10140,10140,Westbound Corydon at Lilac,49.869643245963175,-97.15704654337084,http://www.winnipegtransit.com/stops/10140,False
129,10141,10141,Eastbound Corydon at Arbuthnot,49.870115421381186,-97.15506624798056,http://www.winnipegtransit.com/stops/10141,False
130,10142,10142,Westbound Corydon at Arbuthnot,49.870158029691645,-97.15548214020866,http://www.winnipegtransit.com/stops/10142,False
131,10143,10143,Eastbound Corydon at Cockburn,49.87078511098805,-97.1530644615138,http://www.winnipegtransit.com/stops/10143,False
132,10144,10144,Westbound Corydon at Cockburn,49.870913628082725,-97.15322656787896,http://www.winnipegtransit.com/stops/10144,False
133,10145,10145,Eastbound Corydon at Hugo,49.87154876201081,-97.15075284343358,http://www.winnipegtransit.com/stops/10145,False
134,10146,10146,Westbound Corydon at Hugo,49.87158306287575,-97.1512108143922,http://www.winnipegtransit.com/stops/10146,False
135,10147,10147,Eastbound Corydon at Daly,49.87225299871164,-97.1486661087291,http://www.winnipegtransit.com/stops/10147,False
136,10148,10148,Westbound Corydon at Daly,49.87246741296988,-97.14857440221664,http://www.winnipegtransit.com/stops/10148,False
137,10149,10149,Westbound Corydon at Nassau,49.87324850568172,-97.14623412710976,http://www.winnipegtransit.com/stops/10149,False
138,10150,10150,Eastbound Corydon at Nassau,49.87343766115527,-97.14512735006932,http://www.winnipegtransit.com/stops/10150,False
139,10156,10156,Northbound Harkness at River,49.88298668557666,-97.1353786903807,http://www.winnipegtransit.com/stops/10156,False
140,10157,10157,Eastbound Mayfair at Queen Elizabeth,49.88451542040469,-97.13312021242491,http://www.winnipegtransit.com/stops/10157,True
141,10158,10158,Northbound Queen Elizabeth at Mayfair,49.88515638791982,-97.13214881973482,http://www.winnipegtransit.com/stops/10158,True
142,10159,10159,Southbound Queen Elizabeth at Stradbrook,49.88390505936916,-97.13208574909751,http://www.winnipegtransit.com/stops/10159,True
143,10161,10161,Westbound Stradbrook at Harkness,49.88178236777364,-97.13432536599645,http://www.winnipegtransit.com/stops/10161,False
144,10162,10162,Westbound Portage at Sherburn,49.88454275718247,-97.17659548192252,http://www.winnipegtransit.com/stops/10162,True
145,10169,10169,Westbound River at Bryce,49.88055539277718,-97.1424881452546,http://www.winnipegtransit.com/stops/10169,False
146,10170,10170,Westbound River at Osborne,49.879430849269994,-97.14584423371304,http://www.winnipegtransit.com/stops/10170,False
147,10171,10171,Northbound Osborne at River,49.87946828908375,-97.14649703403526,http://www.winnipegtransit.com/stops/10171,False
148,10172,10172,Southbound Osborne at River,49.87917208027641,-97.14653621683205,http://www.winnipegtransit.com/stops/10172,False
149,10173,10173,Westbound River at Norquay,49.87846922155663,-97.14870674903784,http://www.winnipegtransit.com/stops/10173,False
150,10176,10176,Westbound Wellington at Stradbrook,49.87608260866625,-97.1507745104009,http://www.winnipegtransit.com/stops/10176,False
151,10177,10177,Westbound Wellington at Wardlaw,49.87423831504161,-97.15131818694168,http://www.winnipegtransit.com/stops/10177,False
152,10178,10178,Westbound Wellington at Hugo,49.87292107703529,-97.15276028727055,http://www.winnipegtransit.com/stops/10178,False
153,10179,10179,Westbound Wellington at Dorchester,49.87261617524145,-97.1556390090964,http://www.winnipegtransit.com/stops/10179,False
154,10180,10180,Eastbound Wellington at Cockburn,49.8723402995605,-97.15413247632144,http://www.winnipegtransit.com/stops/10180,False
155,10181,10181,Eastbound Wellington at Hugo,49.87309809067663,-97.15201587669505,http://www.winnipegtransit.com/stops/10181,False
156,10182,10182,Eastbound Wellington at Wardlaw,49.87439457261732,-97.1509642592722,http://www.winnipegtransit.com/stops/10182,False
157,10184,10184,Eastbound Stradbrook at Nassau,49.876449335119055,-97.14839426866251,http://www.winnipegtransit.com/stops/10184,False
158,10185,10185,Southbound Osborne at Wardlaw,49.876983910800725,-97.14414239237144,http://www.winnipegtransit.com/stops/10185,False
159,10186,10186,Northbound Osborne at Stradbrook,49.87766570664935,-97.1445895101974,http://www.winnipegtransit.com/stops/10186,False
160,10187,10187,Eastbound Stradbrook at Osborne,49.87802988453734,-97.14374038200764,http://www.winnipegtransit.com/stops/10187,False
161,10188,10188,Eastbound Stradbrook at Scott,49.87908558040799,-97.14058186417778,http://www.winnipegtransit.com/stops/10188,False
162,10190,10190,Northbound Sherbrook at West Gate,49.87856252584976,-97.16020078057518,http://www.winnipegtransit.com/stops/10190,False
163,10194,10194,Southbound Maryland at Westminster,49.88199448761594,-97.16107260049073,http://www.winnipegtransit.com/stops/10194,False
164,10195,10195,Southbound Maryland at Alloway,49.8835663402238,-97.1609293459362,http://www.winnipegtransit.com/stops/10195,False
165,10196,10196,Southbound Maryland at Broadway,49.88534583685297,-97.16083387489547,http://www.winnipegtransit.com/stops/10196,False
166,10197,10197,Southbound Maryland at Portage South,49.88730424022192,-97.16067590613268,http://www.winnipegtransit.com/stops/10197,False
167,10198,10198,Eastbound Broadway at Maryland,49.885720671208055,-97.1600817803912,http://www.winnipegtransit.com/stops/10198,False
168,10199,10199,Westbound Broadway at Furby,49.88581887004547,-97.15833783477328,http://www.winnipegtransit.com/stops/10199,False
169,10200,10200,Northbound Sherbrook at Broadway North,49.88646908037116,-97.15906486982296,http://www.winnipegtransit.com/stops/10200,False
170,10201,10201,Northbound Sherbrook at Broadway South,49.88522918233358,-97.15915380410776,http://www.winnipegtransit.com/stops/10201,False
171,10202,10202,Northbound Sherbrook at Sara,49.88405221099567,-97.15924033938371,http://www.winnipegtransit.com/stops/10202,False
172,10205,10205,Northbound Sherbrook at Westminster,49.88210257745705,-97.15938409791627,http://www.winnipegtransit.com/stops/10205,False
173,10206,10206,Northbound Sherbrook at Misericordia Health Ctr,49.87995495083067,-97.15952145163256,http://www.winnipegtransit.com/stops/10206,False
174,10207,10207,Eastbound Broadway at Young,49.88556214264012,-97.15577210502128,http://www.winnipegtransit.com/stops/10207,False
175,10208,10208,Westbound Broadway at Young,49.88570787131376,-97.15532105770572,http://www.winnipegtransit.com/stops/10208,False
176,10211,10211,Eastbound Broadway at Balmoral,49.88545396320676,-97.152936222242,http://www.winnipegtransit.com/stops/10211,False
177,10214,10214,Westbound Broadway at Balmoral,49.885610890696434,-97.1526239561492,http://www.winnipegtransit.com/stops/10214,False
178,10228,10228,Eastbound Wolseley at Lenore,49.87936880440004,-97.17134775613164,http://www.winnipegtransit.com/stops/10228,False
179,10229,10229,Westbound Wolseley at Ruby,49.879556549236696,-97.17355392298204,http://www.winnipegtransit.com/stops/10229,False
180,10230,10230,Eastbound Wolseley at Aubrey,49.87946929830387,-97.17486568108222,http://www.winnipegtransit.com/stops/10230,False
181,10231,10231,Southbound Aubrey at Wolseley,49.87918952386864,-97.1753773424034,http://www.winnipegtransit.com/stops/10231,False
182,10232,10232,Northbound Aubrey at Wolseley,49.87890558107368,-97.17505397382828,http://www.winnipegtransit.com/stops/10232,False
183,10233,10233,Northbound Valour at Portage,49.88300167840553,-97.18901526314784,http://www.winnipegtransit.com/stops/10233,False
184,10234,10234,Southbound Valour at Portage,49.88277998189512,-97.18921845002464,http://www.winnipegtransit.com/stops/10234,False
185,10235,10235,Northbound Valour at Riddle,49.88395415469383,-97.18895177776083,http://www.winnipegtransit.com/stops/10235,False
186,10236,10236,Southbound Valour at Riddle,49.88414598605108,-97.18913949521662,http://www.winnipegtransit.com/stops/10236,False
187,10237,10237,Northbound Valour at Wolever South,49.88545456888347,-97.18883993898233,http://www.winnipegtransit.com/stops/10237,False
188,10238,10238,Southbound Valour at Wolever South,49.88561921359789,-97.18901475748962,http://www.winnipegtransit.com/stops/10238,False
189,10239,10239,Northbound Valour at Wolever,49.88705365180174,-97.18871047664672,http://www.winnipegtransit.com/stops/10239,False
190,10240,10240,Southbound Valour at Wolever,49.887263463027615,-97.1888975318869,http://www.winnipegtransit.com/stops/10240,False
191,10241,10241,Northbound Valour at Felix,49.889164930461305,-97.1885479063302,http://www.winnipegtransit.com/stops/10241,False
192,10242,10242,Southbound Valour at Felix,49.88929383446625,-97.18873799752916,http://www.winnipegtransit.com/stops/10242,False
193,10243,10243,Northbound Valour at St. Matthews,49.890521507208376,-97.1884414242625,http://www.winnipegtransit.com/stops/10243,False
194,10244,10244,Southbound Valour at St. Matthews,49.890704349729646,-97.18862950102546,http://www.winnipegtransit.com/stops/10244,False
195,10245,10245,Southbound Valour at Dyson,49.89206092619568,-97.18852301670655,http://www.winnipegtransit.com/stops/10245,False
196,10246,10246,Northbound Valour at Ellice,49.89373786542604,-97.18819566968502,http://www.winnipegtransit.com/stops/10246,False
197,10247,10247,Southbound Valour at Ellice,49.893938687804685,-97.1883830843936,http://www.winnipegtransit.com/stops/10247,False
198,10248,10248,Southbound Valour at Dauphin,49.89507052040982,-97.1882850006918,http://www.winnipegtransit.com/stops/10248,False
199,10249,10249,Northbound Valour at Dauphin,49.89517534798836,-97.18808613381022,http://www.winnipegtransit.com/stops/10249,False
200,10250,10250,Southbound Valour at Sargent,49.89756857032963,-97.18812181266208,http://www.winnipegtransit.com/stops/10250,False
201,10251,10251,Northbound Valour at Sargent,49.89775365133346,-97.18787815320964,http://www.winnipegtransit.com/stops/10251,False
202,10252,10252,Southbound Valour at Wellington,49.900596139807,-97.1878830618363,http://www.winnipegtransit.com/stops/10252,False
203,10253,10253,Northbound Valour at Wellington,49.90071872787255,-97.1876695795604,http://www.winnipegtransit.com/stops/10253,False
204,10254,10254,Westbound Wellington at Spruce,49.900877381282015,-97.18631281308296,http://www.winnipegtransit.com/stops/10254,False
205,10255,10255,Eastbound Wellington at Spruce,49.90074934527326,-97.1861783548698,http://www.winnipegtransit.com/stops/10255,False
206,10256,10256,Westbound Wellington at Erin,49.90079931249163,-97.183628027701,http://www.winnipegtransit.com/stops/10256,False
207,10257,10257,Eastbound Wellington at Erin,49.90067105507162,-97.18347965915264,http://www.winnipegtransit.com/stops/10257,False
208,10258,10258,Westbound Wellington at Wall,49.90073651181336,-97.18134652891314,http://www.winnipegtransit.com/stops/10258,False
209,10259,10259,Eastbound Wellington at Wall,49.90061830722169,-97.18183838114584,http://www.winnipegtransit.com/stops/10259,False
210,10260,10260,Eastbound Wellington at Downing,49.90051361747519,-97.17861150834516,http://www.winnipegtransit.com/stops/10260,False
211,10261,10261,Westbound Wellington at Downing,49.90063312228658,-97.17820315577411,http://www.winnipegtransit.com/stops/10261,False
212,10262,10262,Eastbound Wellington at Dominion,49.90045466370626,-97.1765805493447,http://www.winnipegtransit.com/stops/10262,False
213,10263,10263,Westbound Wellington at Sherburn,49.900542146837694,-97.17528214131642,http://www.winnipegtransit.com/stops/10263,False
214,10264,10264,Eastbound Wellington at Ingersoll,49.900366501344955,-97.17384047826832,http://www.winnipegtransit.com/stops/10264,False
215,10265,10265,Westbound Wellington at Ingersoll,49.900487526157946,-97.17352953885953,http://www.winnipegtransit.com/stops/10265,False
216,10266,10266,Westbound Wellington at Banning,49.90043485682806,-97.1719021992824,http://www.winnipegtransit.com/stops/10266,False
217,10267,10267,Eastbound Wellington at Banning,49.90028792324874,-97.17114183157204,http://www.winnipegtransit.com/stops/10267,False
218,10268,10268,Eastbound Wellington at Arlington,49.90021500618733,-97.16880505008034,http://www.winnipegtransit.com/stops/10268,False
219,10269,10269,Southbound Arlington at St. Paul,49.887981239625574,-97.16933769236952,http://www.winnipegtransit.com/stops/10269,False
220,10270,10270,Southbound Arlington at Portage,49.88586977699042,-97.16948718146293,http://www.winnipegtransit.com/stops/10270,False
221,10271,10271,Northbound Burnell at Portage,49.88560366097396,-97.17086156664428,http://www.winnipegtransit.com/stops/10271,False
222,10272,10272,Northbound Burnell at St. Paul,49.88788614906813,-97.1707195952788,http://www.winnipegtransit.com/stops/10272,False
223,10273,10273,Northbound Burnell at St. Matthews,49.88995244509616,-97.17055793632548,http://www.winnipegtransit.com/stops/10273,False
224,10274,10274,Southbound Arlington at St. Matthews,49.89013764929936,-97.16918648691274,http://www.winnipegtransit.com/stops/10274,False
225,10275,10275,Northbound Arlington at St. Matthews,49.89068161473361,-97.16888744123123,http://www.winnipegtransit.com/stops/10275,False
226,10276,10276,Southbound Arlington at Ellice,49.89335417244128,-97.16895337135236,http://www.winnipegtransit.com/stops/10276,False
227,10277,10277,Northbound Arlington at Ellice,49.89352978267415,-97.16868217045956,http://www.winnipegtransit.com/stops/10277,False
228,10278,10278,Northbound Arlington at Sargent,49.89669258495401,-97.16846495775908,http://www.winnipegtransit.com/stops/10278,False
229,10279,10279,Southbound Arlington at Sargent,49.896947376121986,-97.1686502587122,http://www.winnipegtransit.com/stops/10279,False
230,10280,10280,Northbound Arlington at Wellington,49.90012419211485,-97.16818182736726,http://www.winnipegtransit.com/stops/10280,False
231,10281,10281,Southbound Arlington at Wellington,49.90037087485106,-97.16842315005972,http://www.winnipegtransit.com/stops/10281,False
232,10282,10282,Southbound Arlington at Adele,49.90197014309667,-97.1683068781674,http://www.winnipegtransit.com/stops/10282,False
233,10283,10283,Northbound Arlington at Adele,49.90249612506582,-97.16800842697964,http://www.winnipegtransit.com/stops/10283,False
234,10284,10284,Southbound Arlington at Notre Dame,49.90380247955726,-97.16813998814582,http://www.winnipegtransit.com/stops/10284,False
235,10285,10285,Northbound Arlington at Notre Dame,49.90397830714266,-97.16788264330256,http://www.winnipegtransit.com/stops/10285,False
236,10286,10286,Southbound Arlington at Winnipeg,49.90450036435798,-97.1679046456694,http://www.winnipegtransit.com/stops/10286,False
237,10287,10287,Northbound Arlington at McDermot,49.905846731329234,-97.1665862371348,http://www.winnipegtransit.com/stops/10287,False
238,10288,10288,Southbound Arlington at Bannatyne,49.90601995794773,-97.16673287172851,http://www.winnipegtransit.com/stops/10288,False
239,10289,10289,Southbound Arlington at William,49.906935303646115,-97.16602963516232,http://www.winnipegtransit.com/stops/10289,False
240,10290,10290,Northbound Arlington at William,49.907188503829126,-97.16554648511212,http://www.winnipegtransit.com/stops/10290,False
241,10291,10291,Northbound Arlington at Ross,49.9088236114516,-97.164286613919,http://www.winnipegtransit.com/stops/10291,False
242,10292,10292,Southbound Arlington at Ross,49.908854552568904,-97.16453614899436,http://www.winnipegtransit.com/stops/10292,False
243,10293,10293,Southbound Arlington at Logan,49.910640703664654,-97.1631590296608,http://www.winnipegtransit.com/stops/10293,False
244,10294,10294,Northbound Arlington at Logan,49.91064527596594,-97.16288027913296,http://www.winnipegtransit.com/stops/10294,False
245,10295,10295,Southbound McPhillips at Notre Dame,49.90546706334055,-97.17158661990268,http://www.winnipegtransit.com/stops/10295,False
246,10296,10296,Eastbound Dublin at Notre Dame,49.911063160951414,-97.18998405229424,http://www.winnipegtransit.com/stops/10296,True
247,10297,10297,Eastbound Ellice at Colony,49.89331913155378,-97.15146633855,http://www.winnipegtransit.com/stops/10297,True
248,10298,10298,Northbound McPhillips at Elgin,49.90990680387381,-97.17077801104226,http://www.winnipegtransit.com/stops/10298,False
249,10299,10299,Southbound McPhillips at Elgin,49.91064001937027,-97.17107063318852,http://www.winnipegtransit.com/stops/10299,False
250,10300,10300,Northbound McPhillips at Pacific,49.91175668154072,-97.1705826571174,http://www.winnipegtransit.com/stops/10300,False
251,10301,10301,Southbound McPhillips at Pacific,49.911734991187544,-97.17091777735286,http://www.winnipegtransit.com/stops/10301,False
252,10302,10302,Southbound McPhillips at Logan,49.91384578666582,-97.17072647606416,http://www.winnipegtransit.com/stops/10302,False
253,10303,10303,Northbound McPhillips at Logan,49.914342604659026,-97.17028977922644,http://www.winnipegtransit.com/stops/10303,False
254,10304,10304,Southbound McPhillips at Henry,49.915111999402896,-97.17059497993472,http://www.winnipegtransit.com/stops/10304,False
255,10305,10305,Westbound Logan at Wiens,49.92109187192049,-97.19339794659015,http://www.winnipegtransit.com/stops/10305,False
256,10306,10306,Eastbound Logan at Wiens,49.921148331529565,-97.19413422296684,http://www.winnipegtransit.com/stops/10306,False
257,10307,10307,Eastbound Logan at McKelvey,49.92049566949706,-97.19208279504537,http://www.winnipegtransit.com/stops/10307,False
258,10309,10309,Eastbound Logan at Smart,49.91965381807246,-97.18943945645692,http://www.winnipegtransit.com/stops/10309,False
259,10310,10310,Westbound Logan at Lock,49.920230765361275,-97.19067168446658,http://www.winnipegtransit.com/stops/10310,False
260,10311,10311,Eastbound Logan at Cecil,49.91879349167019,-97.18676903968812,http://www.winnipegtransit.com/stops/10311,False
261,10312,10312,Westbound Logan at Cecil,49.91885995778672,-97.1864182667935,http://www.winnipegtransit.com/stops/10312,False
262,10313,10313,Eastbound Logan at Quelch,49.91788553591753,-97.1839333355115,http://www.winnipegtransit.com/stops/10313,False
263,10314,10314,Westbound Logan at Quelch,49.91789543453848,-97.1834175201827,http://www.winnipegtransit.com/stops/10314,False
264,10315,10315,Eastbound Logan at Vine,49.91699592827307,-97.18112490754775,http://www.winnipegtransit.com/stops/10315,False
265,10316,10316,Westbound Logan at Weston,49.91689159397101,-97.180209412778,http://www.winnipegtransit.com/stops/10316,False
266,10317,10317,Eastbound Logan at Electa,49.916267837208416,-97.17886771247636,http://www.winnipegtransit.com/stops/10317,False
267,10318,10318,Westbound Logan at Blaine,49.9162485540895,-97.17821370851328,http://www.winnipegtransit.com/stops/10318,False
268,10319,10319,Eastbound Logan at Winks,49.915331405635385,-97.1759497950007,http://www.winnipegtransit.com/stops/10319,False
269,10320,10320,Westbound Logan at Winks,49.91538819133235,-97.17555760689962,http://www.winnipegtransit.com/stops/10320,False
270,10321,10321,Eastbound Logan at Yeomans,49.91447055241411,-97.17326594177062,http://www.winnipegtransit.com/stops/10321,False
271,10322,10322,Westbound Logan at Yeomans,49.91454618699146,-97.17292876481136,http://www.winnipegtransit.com/stops/10322,False
272,10323,10323,Westbound Logan at McPhillips,49.91390104386392,-97.17080796373158,http://www.winnipegtransit.com/stops/10323,False
273,10324,10324,Eastbound Logan at McPhillips,49.91347542376958,-97.17005793783272,http://www.winnipegtransit.com/stops/10324,False
274,10325,10325,Eastbound Logan at Maude,49.91242715148226,-97.16690779700316,http://www.winnipegtransit.com/stops/10325,False
275,10326,10326,Westbound Logan at Maude,49.91274861831329,-97.16732742042144,http://www.winnipegtransit.com/stops/10326,False
276,10327,10327,Eastbound Wellington at St James,49.90117634165538,-97.20028337768906,http://www.winnipegtransit.com/stops/10327,False
277,10328,10328,Westbound Logan at Trinity,49.91178338587166,-97.16431352335148,http://www.winnipegtransit.com/stops/10328,False
278,10329,10329,Westbound Logan at Arlington,49.91116792794032,-97.16237290425114,http://www.winnipegtransit.com/stops/10329,False
279,10330,10330,Eastbound Logan at Arlington,49.91096028438673,-97.16232508089888,http://www.winnipegtransit.com/stops/10330,False
280,10331,10331,Eastbound Logan at Beacon,49.91036343623558,-97.16042559771378,http://www.winnipegtransit.com/stops/10331,False
281,10332,10332,Westbound Logan at Tecumseh,49.91024051798084,-97.1594831210584,http://www.winnipegtransit.com/stops/10332,False
282,10333,10333,Eastbound Logan at Nora,49.909493016703486,-97.15772872650253,http://www.winnipegtransit.com/stops/10333,False
283,10334,10334,Westbound Logan at Nora,49.909587914353374,-97.15747439679588,http://www.winnipegtransit.com/stops/10334,False
284,10335,10335,Eastbound Logan at Lulu,49.90884016135591,-97.15570613765506,http://www.winnipegtransit.com/stops/10335,False
285,10336,10336,Westbound Logan at Lulu,49.90893483278459,-97.15543788766963,http://www.winnipegtransit.com/stops/10336,False
286,10337,10337,Westbound Logan at Chambers,49.908291149388795,-97.1534289303624,http://www.winnipegtransit.com/stops/10337,False
287,10338,10338,Eastbound Logan at Sherbrook,49.907893497751765,-97.15274771373365,http://www.winnipegtransit.com/stops/10338,False
288,10339,10339,Eastbound Logan at Gunnell,49.90715498161741,-97.15043604876529,http://www.winnipegtransit.com/stops/10339,False
289,10340,10340,Westbound Logan at Gunnell,49.907211903561915,-97.15005781898462,http://www.winnipegtransit.com/stops/10340,False
290,10341,10341,Eastbound Logan at Isabel,49.90608397102869,-97.14702298357616,http://www.winnipegtransit.com/stops/10341,False
291,10342,10342,Westbound Logan at Isabel,49.906450678491616,-97.1474546160045,http://www.winnipegtransit.com/stops/10342,False
292,10343,10343,Eastbound Logan at Laura,49.90523278389173,-97.14442334000178,http://www.winnipegtransit.com/stops/10343,False
293,10344,10344,Westbound Logan at Laura,49.90531777030264,-97.14411367753918,http://www.winnipegtransit.com/stops/10344,False
294,10345,10345,Eastbound Logan at Fountain,49.90448533756238,-97.14212619667832,http://www.winnipegtransit.com/stops/10345,False
295,10346,10346,Westbound Logan at Fountain,49.904598626575954,-97.14189901013768,http://www.winnipegtransit.com/stops/10346,False
296,10347,10347,Eastbound Logan at Stanley,49.90377469858283,-97.13988341530376,http://www.winnipegtransit.com/stops/10347,False
297,10348,10348,Westbound Logan at Princess,49.903452989965075,-97.13833598801062,http://www.winnipegtransit.com/stops/10348,False
298,10349,10349,Eastbound Logan at Main,49.90258203711647,-97.136196973655,http://www.winnipegtransit.com/stops/10349,False
299,10351,10351,Eastbound Higgins at Point Douglas,49.902326310841474,-97.11540064673056,http://www.winnipegtransit.com/stops/10351,False
300,10352,10352,Westbound Higgins at Boyle,49.90228770761403,-97.11579209300088,http://www.winnipegtransit.com/stops/10352,True
301,10353,10353,Westbound Higgins at Maple,49.90415553943777,-97.13113653216558,http://www.winnipegtransit.com/stops/10353,True
302,10354,10354,Eastbound Higgins at McArthur,49.90176827525245,-97.1170378489802,http://www.winnipegtransit.com/stops/10354,False
303,10355,10355,Eastbound Higgins at Acores,49.90215918065647,-97.12005859640672,http://www.winnipegtransit.com/stops/10355,False
304,10356,10356,Westbound Higgins at Acores,49.90226903502249,-97.11962260497116,http://www.winnipegtransit.com/stops/10356,True
305,10357,10357,Westbound Higgins at Annabella,49.902631058973,-97.1219760487171,http://www.winnipegtransit.com/stops/10357,True
306,10358,10358,Eastbound Higgins at Annabella,49.902490615714015,-97.12219040085068,http://www.winnipegtransit.com/stops/10358,False
307,10359,10359,Westbound Higgins at Waterfront,49.9036763296592,-97.1265313278086,http://www.winnipegtransit.com/stops/10359,True
308,10360,10360,Eastbound Higgins at Waterfront,49.90356599881891,-97.12693948078116,http://www.winnipegtransit.com/stops/10360,False
309,10363,10363,Westbound Higgins at Main,49.90444361997203,-97.13338158825977,http://www.winnipegtransit.com/stops/10363,True
310,10365,10365,Northbound St James at Portage,49.881352025435014,-97.20148003285902,http://www.winnipegtransit.com/stops/10365,True
311,10366,10366,Northbound St James at Ness North,49.88492736941332,-97.2011801008174,http://www.winnipegtransit.com/stops/10366,False
312,10367,10367,Northbound St James at Maroons,49.88777496997787,-97.2009350205312,http://www.winnipegtransit.com/stops/10367,False
313,10368,10368,Eastbound Higgins at Maple,49.90404541688423,-97.13155859745056,http://www.winnipegtransit.com/stops/10368,False
314,10369,10369,Northbound St James at St. Matthews,49.89079445545319,-97.20075312995624,http://www.winnipegtransit.com/stops/10369,False
315,10370,10370,Northbound St James at Ellice,49.89391152864786,-97.20048403793366,http://www.winnipegtransit.com/stops/10370,False
316,10371,10371,Northbound St James at Sargent,49.89753224247507,-97.200210091362,http://www.winnipegtransit.com/stops/10371,False
317,10372,10372,Northbound St James at Wellington,49.90103543701407,-97.19989869234224,http://www.winnipegtransit.com/stops/10372,False
318,10373,10373,Northbound St James at Saskatchewan,49.9059945348707,-97.19950518033548,http://www.winnipegtransit.com/stops/10373,False
319,10374,10374,Northbound St James at Saskatchewan North,49.90836631275096,-97.19931936654712,http://www.winnipegtransit.com/stops/10374,False
320,10375,10375,Northbound St James at Dublin,49.91128624678892,-97.1990991843692,http://www.winnipegtransit.com/stops/10375,False
321,10376,10376,Northbound St James at Bangor,49.91390973405469,-97.1989039454874,http://www.winnipegtransit.com/stops/10376,False
322,10377,10377,Northbound St James at Notre Dame,49.91590437172264,-97.19875997556896,http://www.winnipegtransit.com/stops/10377,False
323,10378,10378,Eastbound Taylor at Stafford,49.8578376720112,-97.1534051423684,http://www.winnipegtransit.com/stops/10378,False
324,10379,10379,Westbound Taylor at Stafford,49.85795153652558,-97.15377647107316,http://www.winnipegtransit.com/stops/10379,False
325,10380,10380,Westbound Polo Park West Access at Polo Park,49.88314266308972,-97.19978474654792,http://www.winnipegtransit.com/stops/10380,True
326,10381,10381,Westbound Polo Park West Access at Polo Park (11),49.88485754826512,-97.19958173941802,http://www.winnipegtransit.com/stops/10381,True
327,10383,10383,Southbound Empress at Eastway,49.882113407490856,-97.19664914039193,http://www.winnipegtransit.com/stops/10383,False
328,10384,10384,Southbound Empress at Westway,49.8838208137067,-97.1965437535458,http://www.winnipegtransit.com/stops/10384,False
329,10385,10385,Westbound Wellington at St James,49.90130005056893,-97.19898364708482,http://www.winnipegtransit.com/stops/10385,False
330,10386,10386,Westbound Westway at Empress,49.883782138065975,-97.1957934576361,http://www.winnipegtransit.com/stops/10386,False
331,10387,10387,Northbound Keewatin at Pacific,49.919883734132355,-97.19494770380264,http://www.winnipegtransit.com/stops/10387,False
332,10388,10388,Eastbound Wellington at Empress,49.901049953022145,-97.19620775444072,http://www.winnipegtransit.com/stops/10388,False
333,10389,10389,Northbound Keewatin at William,49.916915611482416,-97.19496103024386,http://www.winnipegtransit.com/stops/10389,False
334,10390,10390,Eastbound Notre Dame at Keewatin,49.91636996660945,-97.19573364990362,http://www.winnipegtransit.com/stops/10390,False
335,10391,10391,Westbound Notre Dame at Worth,49.91540703808859,-97.19397259906992,http://www.winnipegtransit.com/stops/10391,False
336,10392,10392,Eastbound Notre Dame at Worth,49.91545763191697,-97.1943328936699,http://www.winnipegtransit.com/stops/10392,False
337,10393,10393,Eastbound Notre Dame at Bannatyne,49.91407759882925,-97.19293574291154,http://www.winnipegtransit.com/stops/10393,False
338,10394,10394,Westbound Notre Dame at Bannatyne,49.91437382450404,-97.19289680992846,http://www.winnipegtransit.com/stops/10394,False
339,10395,10395,Eastbound Notre Dame at Cecil,49.91283304718806,-97.1915753909278,http://www.winnipegtransit.com/stops/10395,False
340,10396,10396,Westbound Notre Dame at Cecil,49.91302030881205,-97.19147087953698,http://www.winnipegtransit.com/stops/10396,False
341,10397,10397,Westbound Wellington at Empress,49.90120135834323,-97.19553365602718,http://www.winnipegtransit.com/stops/10397,False
342,10398,10398,Westbound Notre Dame at Winnipeg,49.9120602956381,-97.19047603073162,http://www.winnipegtransit.com/stops/10398,False
343,10399,10399,Westbound Notre Dame at Flint,49.910699842236646,-97.18803369019298,http://www.winnipegtransit.com/stops/10399,False
344,10400,10400,Eastbound Notre Dame at Flint,49.910151145925816,-97.1868842458726,http://www.winnipegtransit.com/stops/10400,False
345,10401,10401,Westbound Notre Dame at Valour,49.91005650242055,-97.18601029078074,http://www.winnipegtransit.com/stops/10401,False
346,10402,10402,Westbound Sargent at Maryland,49.89663445628582,-97.15969453327097,http://www.winnipegtransit.com/stops/10402,False
347,10403,10403,Eastbound Notre Dame at Clifton,49.90936595716976,-97.18442049938916,http://www.winnipegtransit.com/stops/10403,False
348,10404,10404,Eastbound Notre Dame at Erin,49.90876048033055,-97.182521133851,http://www.winnipegtransit.com/stops/10404,True
349,10405,10405,Westbound Notre Dame at Erin,49.90918623862904,-97.18328511976274,http://www.winnipegtransit.com/stops/10405,False
350,10406,10406,Westbound Notre Dame at Wall,49.90815389883492,-97.17998116434914,http://www.winnipegtransit.com/stops/10406,False
351,10407,10407,Eastbound Notre Dame at Wall,49.90752158955683,-97.17866788450368,http://www.winnipegtransit.com/stops/10407,True
352,10408,10408,Westbound Notre Dame at Myrtle,49.90722824223418,-97.17717472775604,http://www.winnipegtransit.com/stops/10408,False
353,10409,10409,Eastbound Notre Dame at Dominion,49.906745656305226,-97.1762319087664,http://www.winnipegtransit.com/stops/10409,False
354,10410,10410,Westbound Notre Dame at Garfield,49.906708161084616,-97.17556479390652,http://www.winnipegtransit.com/stops/10410,False
355,10411,10411,Westbound Notre Dame at Ingersoll,49.90615933266801,-97.17384455962306,http://www.winnipegtransit.com/stops/10411,False
356,10412,10412,Eastbound Notre Dame at Sherburn,49.90603655141466,-97.17404418144773,http://www.winnipegtransit.com/stops/10412,False
357,10413,10413,Eastbound Notre Dame at Lipton,49.90550611942112,-97.17235114726112,http://www.winnipegtransit.com/stops/10413,True
358,10414,10414,Westbound Notre Dame at McPhillips,49.90529689624983,-97.171063817131,http://www.winnipegtransit.com/stops/10414,False
359,10415,10415,Eastbound Notre Dame at Burnell,49.90480637169611,-97.17019103189656,http://www.winnipegtransit.com/stops/10415,False
360,10417,10417,Westbound Notre Dame at Arlington,49.9041530326716,-97.16755570350384,http://www.winnipegtransit.com/stops/10417,False
361,10418,10418,Westbound Notre Dame at Tecumseh,49.90351943174057,-97.16560210887296,http://www.winnipegtransit.com/stops/10418,False
362,10419,10419,Eastbound Notre Dame at Simcoe,49.903424736052905,-97.16587030925888,http://www.winnipegtransit.com/stops/10419,False
363,10420,10420,Eastbound Notre Dame at Toronto,49.90272442743835,-97.16368254674155,http://www.winnipegtransit.com/stops/10420,False
364,10421,10421,Westbound Notre Dame at Toronto,49.90280968689328,-97.163386851128,http://www.winnipegtransit.com/stops/10421,False
365,10422,10422,Eastbound Notre Dame at McGee (HSC),49.901599870506935,-97.1602715395198,http://www.winnipegtransit.com/stops/10422,True
366,10423,10423,Westbound Notre Dame at Pearl (HSC),49.90188075843554,-97.16040011763468,http://www.winnipegtransit.com/stops/10423,False
367,10424,10424,Southbound Maryland at Notre Dame,49.90075521493799,-97.15976055568926,http://www.winnipegtransit.com/stops/10424,False
368,10425,10425,Southbound Maryland at Sargent North,49.89832015005463,-97.15992282873752,http://www.winnipegtransit.com/stops/10425,False
369,10426,10426,Southbound Maryland at Sargent,49.89628961430827,-97.16006969517244,http://www.winnipegtransit.com/stops/10426,True
370,10427,10427,Southbound Maryland at Sargent South,49.894860936454855,-97.16016580854956,http://www.winnipegtransit.com/stops/10427,False
371,10428,10428,Northbound Keewatin at Gallagher,49.92223091480222,-97.19491576684388,http://www.winnipegtransit.com/stops/10428,False
372,10429,10429,Southbound Maryland at Ellice,49.89258768052097,-97.1603218802397,http://www.winnipegtransit.com/stops/10429,False
373,10430,10430,Southbound Maryland at St. Matthews,49.88984740746848,-97.16052353603772,http://www.winnipegtransit.com/stops/10430,False
374,10431,10431,Southbound Maryland at Portage North,49.88828388369751,-97.16062474415035,http://www.winnipegtransit.com/stops/10431,False
375,10432,10432,Northbound Sherbrook at Portage North,49.88867940943957,-97.15891116104766,http://www.winnipegtransit.com/stops/10432,False
376,10433,10433,Northbound Sherbrook at Sherbrook Pool,49.8901170769913,-97.15881468576832,http://www.winnipegtransit.com/stops/10433,False
377,10434,10434,Northbound Sherbrook at Ellice,49.8927944188768,-97.15861532686752,http://www.winnipegtransit.com/stops/10434,False
378,10435,10435,Northbound Sherbrook at Ellice North,49.894789216485734,-97.15848369872388,http://www.winnipegtransit.com/stops/10435,False
379,10436,10436,Northbound Sherbrook at Sargent,49.89633453527812,-97.15836917036371,http://www.winnipegtransit.com/stops/10436,False
380,10437,10437,Northbound Sherbrook at Sargent North,49.89858980689024,-97.1582136747314,http://www.winnipegtransit.com/stops/10437,False
381,10438,10438,Northbound Sherbrook at Cumberland,49.89977576362003,-97.15812673657496,http://www.winnipegtransit.com/stops/10438,False
382,10439,10439,Northbound Sherbrook at Notre Dame,49.90127258959453,-97.1577912091943,http://www.winnipegtransit.com/stops/10439,False
383,10441,10441,Northbound Sherbrook at Bannatyne (HSC),49.903075754619586,-97.156357708099,http://www.winnipegtransit.com/stops/10441,False
384,10442,10442,Southbound Sherbrook at Bannatyne (HSC),49.902911380260925,-97.15676784651704,http://www.winnipegtransit.com/stops/10442,False
385,10443,10443,Northbound Sherbrook at William (HSC),49.90402655050044,-97.15562511277938,http://www.winnipegtransit.com/stops/10443,False
386,10444,10444,Southbound Sherbrook at William (HSC),49.903933208418934,-97.15597684569109,http://www.winnipegtransit.com/stops/10444,False
387,10445,10445,Northbound Sherbrook at Elgin,49.905174223534935,-97.1548292669022,http://www.winnipegtransit.com/stops/10445,False
388,10446,10446,Southbound Sherbrook at Elgin,49.90514292353176,-97.15512293381371,http://www.winnipegtransit.com/stops/10446,False
389,10447,10447,Northbound Sherbrook at Pacific,49.90649968338172,-97.15390124635826,http://www.winnipegtransit.com/stops/10447,False
390,10448,10448,Southbound Sherbrook at Logan,49.90770782710487,-97.15294979921694,http://www.winnipegtransit.com/stops/10448,False
391,10449,10449,Southbound Gunnell at Logan,49.90754562707741,-97.15011469076012,http://www.winnipegtransit.com/stops/10449,False
392,10450,10450,Westbound Sargent at St. James,49.8978643328475,-97.19958502994716,http://www.winnipegtransit.com/stops/10450,False
393,10451,10451,Westbound Sargent at Milt Stegall,49.897796759131296,-97.19755448186426,http://www.winnipegtransit.com/stops/10451,False
394,10452,10452,Eastbound Sargent at Milt Stegall,49.89764620763942,-97.1982841944497,http://www.winnipegtransit.com/stops/10452,False
395,10453,10453,Westbound Sargent at Sanford,49.89767948423477,-97.19349273404924,http://www.winnipegtransit.com/stops/10453,False
396,10454,10454,Eastbound Sargent at Sanford,49.89752114321941,-97.1937214479478,http://www.winnipegtransit.com/stops/10454,False
397,10455,10455,Eastbound Sargent at Strathcona,49.89741548240457,-97.19041124600562,http://www.winnipegtransit.com/stops/10455,False
398,10456,10456,Westbound Sargent at Strathcona,49.897572946544,-97.19012685436086,http://www.winnipegtransit.com/stops/10456,False
399,10457,10457,Eastbound Sargent at Valour,49.897344045476785,-97.1881441479297,http://www.winnipegtransit.com/stops/10457,False
400,10458,10458,Westbound Sargent at Valour,49.89750106829758,-97.1878319157592,http://www.winnipegtransit.com/stops/10458,False
401,10459,10459,Westbound Sargent at Clifton,49.89741252002775,-97.18505023386716,http://www.winnipegtransit.com/stops/10459,False
402,10460,10460,Eastbound Sargent at Erin,49.89720387657845,-97.1837908930388,http://www.winnipegtransit.com/stops/10460,False
403,10461,10461,Eastbound Sargent at Wall,49.897158157403666,-97.18202414383818,http://www.winnipegtransit.com/stops/10461,False
404,10462,10462,Westbound Sargent at Erin,49.89737642708004,-97.18389581407816,http://www.winnipegtransit.com/stops/10462,False
405,10463,10463,Eastbound Sargent at Minto,49.897087868865576,-97.179840574646,http://www.winnipegtransit.com/stops/10463,False
406,10464,10464,Westbound Sargent at Minto,49.8972455254429,-97.17957006795568,http://www.winnipegtransit.com/stops/10464,False
407,10465,10465,Eastbound Sargent at Dominion,49.89701534846349,-97.17751784648712,http://www.winnipegtransit.com/stops/10465,False
408,10466,10466,Westbound Sargent at Dominion,49.89717212308522,-97.1771916660508,http://www.winnipegtransit.com/stops/10466,False
409,10467,10467,Eastbound Sargent at Sherburn,49.896942781414424,-97.17519512653428,http://www.winnipegtransit.com/stops/10467,False
410,10468,10468,Westbound Sargent at Sherburn,49.897100646336376,-97.17493852246,http://www.winnipegtransit.com/stops/10468,False
411,10469,10469,Eastbound Sargent at Lipton,49.89687170509931,-97.17296983073332,http://www.winnipegtransit.com/stops/10469,False
412,10470,10470,Westbound Sargent at Banning,49.897011348536594,-97.17212906227938,http://www.winnipegtransit.com/stops/10470,False
413,10471,10471,Eastbound Sargent at Banning,49.896818369765754,-97.17130086392338,http://www.winnipegtransit.com/stops/10471,False
414,10472,10472,Westbound Sargent at Alverstone,49.896936913113585,-97.1696950210386,http://www.winnipegtransit.com/stops/10472,False
415,10473,10473,Eastbound Sargent at Arlington,49.89674237616633,-97.16876941866724,http://www.winnipegtransit.com/stops/10473,False
416,10474,10474,Westbound Sargent at Arlington,49.89689780476032,-97.1683597131854,http://www.winnipegtransit.com/stops/10474,False
417,10475,10475,Eastbound Sargent at Simcoe,49.89666764970668,-97.16632148156268,http://www.winnipegtransit.com/stops/10475,False
418,10476,10476,Westbound Sargent at Simcoe,49.89683166659725,-97.16645451250724,http://www.winnipegtransit.com/stops/10476,False
419,10477,10477,Eastbound Sargent at Toronto,49.89659640265673,-97.1640962160318,http://www.winnipegtransit.com/stops/10477,False
420,10478,10478,Westbound Sargent at Beverley,49.896787888582445,-97.16482696514518,http://www.winnipegtransit.com/stops/10478,False
421,10479,10479,Westbound Sargent at Wall,49.89731494490347,-97.18169797669567,http://www.winnipegtransit.com/stops/10479,False
422,10480,10480,Eastbound Sargent at Agnes,49.89651384185304,-97.16116122317696,http://www.winnipegtransit.com/stops/10480,False
423,10481,10481,Westbound Sargent at Agnes,49.89669083226204,-97.16154438991904,http://www.winnipegtransit.com/stops/10481,False
424,10482,10482,Eastbound Sargent at Maryland,49.896480385705125,-97.1601877616249,http://www.winnipegtransit.com/stops/10482,False
425,10483,10483,Eastbound Sargent at Sherbrook,49.896409242060614,-97.15797643322816,http://www.winnipegtransit.com/stops/10483,False
426,10484,10484,Westbound Sargent at Sherbrook,49.89658491459498,-97.15827608901137,http://www.winnipegtransit.com/stops/10484,False
427,10485,10485,Eastbound Sargent at Young,49.89634027296236,-97.15590427524135,http://www.winnipegtransit.com/stops/10485,False
428,10486,10486,Westbound Sargent at Langside,49.89649809434959,-97.15564761260934,http://www.winnipegtransit.com/stops/10486,False
429,10487,10487,Westbound Sargent at Balmoral,49.89632631193037,-97.15277174396154,http://www.winnipegtransit.com/stops/10487,False
430,10488,10488,Eastbound Sargent at Balmoral,49.89615262406449,-97.15259735590534,http://www.winnipegtransit.com/stops/10488,False
431,10489,10489,Eastbound Cumberland at Sherbrook,49.89976433837396,-97.15797398883818,http://www.winnipegtransit.com/stops/10489,True
432,10490,10490,Eastbound Cumberland at Langside,49.8989379278924,-97.15522036684357,http://www.winnipegtransit.com/stops/10490,False
433,10491,10491,Eastbound Cumberland at Balmoral,49.898136200239456,-97.15232664255494,http://www.winnipegtransit.com/stops/10491,True
434,10492,10492,Southbound Emily at McDermot (HSC),49.90338408115736,-97.16103926975882,http://www.winnipegtransit.com/stops/10492,False
435,10493,10493,Westbound Ellice at St. James,49.89427535033729,-97.2001641747746,http://www.winnipegtransit.com/stops/10493,False
436,10494,10494,Eastbound Ellice at Milt Stegall,49.89404586469487,-97.1975549987724,http://www.winnipegtransit.com/stops/10494,False
437,10495,10495,Westbound Ellice at Milt Stegall,49.89422381865234,-97.19800786250308,http://www.winnipegtransit.com/stops/10495,False
438,10496,10496,Eastbound Ellice at Empress,49.89396145804243,-97.19502397755912,http://www.winnipegtransit.com/stops/10496,False
439,10497,10497,Westbound Ellice at Empress,49.894137686563525,-97.19536550333248,http://www.winnipegtransit.com/stops/10497,False
440,10498,10498,Eastbound Ellice at Strathcona West,49.89387838066558,-97.19200557592194,http://www.winnipegtransit.com/stops/10498,False
441,10499,10499,Eastbound Ellice at Strathcona,49.89383097626657,-97.1906984954805,http://www.winnipegtransit.com/stops/10499,False
442,10500,10500,Westbound Ellice at Strathcona,49.893988006428735,-97.1903862943996,http://www.winnipegtransit.com/stops/10500,False
443,10501,10501,Eastbound Ellice at Valour,49.89375998229,-97.18845939626632,http://www.winnipegtransit.com/stops/10501,False
444,10502,10502,Westbound Ellice at Valour,49.89391700632437,-97.18814718854104,http://www.winnipegtransit.com/stops/10502,False
445,10503,10503,Southbound Empress at Sargent,49.89778200367454,-97.19545234319426,http://www.winnipegtransit.com/stops/10503,False
446,10504,10504,Eastbound Ellice at Clifton,49.89367014295989,-97.18559443333538,http://www.winnipegtransit.com/stops/10504,False
447,10505,10505,Westbound Ellice at Clifton,49.89382803164784,-97.18533788023603,http://www.winnipegtransit.com/stops/10505,False
448,10506,10506,Westbound Ellice at Erin,49.89379259727521,-97.18422529292528,http://www.winnipegtransit.com/stops/10506,False
449,10507,10507,Eastbound Ellice at Erin,49.89361349830052,-97.18370290677736,http://www.winnipegtransit.com/stops/10507,False
450,10508,10508,Eastbound Ellice at Wall,49.89355398148664,-97.18163048166326,http://www.winnipegtransit.com/stops/10508,False
451,10509,10509,Westbound Ellice at Wall,49.893730249056375,-97.1819719547534,http://www.winnipegtransit.com/stops/10509,False
452,10510,10510,Eastbound Ellice at Minto,49.89350274131347,-97.18008685719803,http://www.winnipegtransit.com/stops/10510,False
453,10511,10511,Westbound Ellice at Minto,49.89366105514093,-97.17985811873592,http://www.winnipegtransit.com/stops/10511,False
454,10512,10512,Eastbound Ellice at Dominion,49.8934096270669,-97.17702711216184,http://www.winnipegtransit.com/stops/10512,False
455,10513,10513,Westbound Ellice at Dominion,49.89357363201597,-97.17716017107058,http://www.winnipegtransit.com/stops/10513,False
456,10514,10514,Eastbound Ellice at Ingersoll,49.893322357447005,-97.17434310093894,http://www.winnipegtransit.com/stops/10514,False
457,10515,10515,Westbound Ellice at Ingersoll,49.89348022075346,-97.17408651365692,http://www.winnipegtransit.com/stops/10515,False
458,10516,10516,Eastbound Ellice at Banning,49.89325148626065,-97.17213188875344,http://www.winnipegtransit.com/stops/10516,False
459,10517,10517,Westbound Ellice at Banning,49.89340934457832,-97.1718752947684,http://www.winnipegtransit.com/stops/10517,False
460,10518,10518,Westbound Ellice at Arlington,49.89334917575008,-97.16977506756854,http://www.winnipegtransit.com/stops/10518,False
461,10519,10519,Eastbound Ellice at Arlington,49.893170672202075,-97.16929448782491,http://www.winnipegtransit.com/stops/10519,False
462,10520,10520,Eastbound Ellice at Simcoe,49.89308234162235,-97.1665548469127,http://www.winnipegtransit.com/stops/10520,False
463,10521,10521,Westbound Ellice at Simcoe,49.89324062817633,-97.16632606690652,http://www.winnipegtransit.com/stops/10521,False
464,10522,10522,Eastbound Ellice at Toronto,49.893019869825565,-97.16431548921555,http://www.winnipegtransit.com/stops/10522,False
465,10523,10523,Westbound Ellice at Toronto,49.89317793118541,-97.1640727868694,http://www.winnipegtransit.com/stops/10523,False
466,10524,10524,Eastbound Ellice at Agnes,49.89294880691358,-97.16210431068936,http://www.winnipegtransit.com/stops/10524,False
467,10525,10525,Westbound Ellice at McGee,49.89309168681943,-97.16147231226712,http://www.winnipegtransit.com/stops/10525,False
468,10526,10526,Eastbound Ellice at McGee,49.892905853503606,-97.16053256076188,http://www.winnipegtransit.com/stops/10526,False
469,10527,10527,Westbound Portage at Carlton (Portage Place),49.8929570895674,-97.14570181022124,http://www.winnipegtransit.com/stops/10527,False
470,10528,10528,Westbound Ellice at Sherbrook,49.89300928306552,-97.1585514535098,http://www.winnipegtransit.com/stops/10528,False
471,10529,10529,Eastbound Ellice at Sherbrook,49.89283073329671,-97.15807091978132,http://www.winnipegtransit.com/stops/10529,True
472,10530,10530,Eastbound Ellice at Langside,49.89274701453272,-97.1556374610615,http://www.winnipegtransit.com/stops/10530,False
473,10531,10531,Westbound Ellice at Langside,49.89292114123403,-97.15583967879851,http://www.winnipegtransit.com/stops/10531,False
474,10533,10533,Westbound Ellice at Spence,49.892861125013106,-97.15376733111212,http://www.winnipegtransit.com/stops/10533,False
475,10534,10534,Northbound Vaughan at Ellice,49.89344918434983,-97.1505980871223,http://www.winnipegtransit.com/stops/10534,False
476,10535,10535,Westbound Ellice at Balmoral,49.89333767410557,-97.15206435641076,http://www.winnipegtransit.com/stops/10535,False
477,10536,10536,Northbound Kennedy at Qu'Appelle,49.89482312007862,-97.14989111866691,http://www.winnipegtransit.com/stops/10536,False
478,10538,10538,Northbound Kennedy at Sargent,49.89621119041977,-97.15063173684946,http://www.winnipegtransit.com/stops/10538,False
479,10541,10541,Westbound Portage at Garry,49.894724051256354,-97.14089982436434,http://www.winnipegtransit.com/stops/10541,True
480,10542,10542,Westbound Portage at Donald (Canada Life Centre),49.893870943195815,-97.14323007576962,http://www.winnipegtransit.com/stops/10542,True
481,10543,10543,Westbound Portage at Edmonton (Portage Place),49.89246563222165,-97.14702946821048,http://www.winnipegtransit.com/stops/10543,True
482,10545,10545,Westbound Portage at Colony,49.891208569621185,-97.15054450587616,http://www.winnipegtransit.com/stops/10545,True
483,10546,10546,Westbound Portage at Spence (U of W),49.88999279516534,-97.1538350169732,http://www.winnipegtransit.com/stops/10546,True
484,10547,10547,Westbound Portage at Langside,49.88913207689593,-97.15683338426066,http://www.winnipegtransit.com/stops/10547,True
485,10548,10548,Westbound Portage at Sherbrook,49.8885791963869,-97.15883143927589,http://www.winnipegtransit.com/stops/10548,True
486,10549,10549,Westbound Portage at Maryland,49.8879340261636,-97.16125062501692,http://www.winnipegtransit.com/stops/10549,True
487,10550,10550,Westbound Portage at Broadway,49.88703191469943,-97.164486974533,http://www.winnipegtransit.com/stops/10550,True
488,10551,10551,Westbound Portage at Simcoe,49.88624481429701,-97.16760747248637,http://www.winnipegtransit.com/stops/10551,True
489,10552,10552,Westbound Portage at Burnell,49.88534296146702,-97.170871420863,http://www.winnipegtransit.com/stops/10552,True
490,10553,10553,Westbound Portage at Lipton,49.88493499795458,-97.17351799016352,http://www.winnipegtransit.com/stops/10553,True
491,10555,10555,Westbound Portage at Minto,49.88407037996677,-97.18030238948089,http://www.winnipegtransit.com/stops/10555,True
492,10556,10556,Westbound Portage at Wall,49.88367861204183,-97.18342151440886,http://www.winnipegtransit.com/stops/10556,True
493,10557,10557,Westbound Portage at Clifton,49.883260932831526,-97.18604040554472,http://www.winnipegtransit.com/stops/10557,True
494,10558,10558,Westbound Portage at Valour,49.882669711194026,-97.18906944767627,http://www.winnipegtransit.com/stops/10558,True
495,10559,10559,Westbound Portage at Strathcona,49.882122054316504,-97.19201326378555,http://www.winnipegtransit.com/stops/10559,True
496,10561,10561,Westbound Portage at Tylehurst (Polo Park),49.88081204640024,-97.19914758490584,http://www.winnipegtransit.com/stops/10561,True
497,10562,10562,Eastbound Portage at Tylehurst (Polo Park),49.88039580167746,-97.1995667547574,http://www.winnipegtransit.com/stops/10562,True
498,10563,10563,Eastbound Portage at St. John Ambulance,49.88102834934966,-97.19628588237454,http://www.winnipegtransit.com/stops/10563,False
499,10564,10564,Eastbound Portage at Raglan,49.88201629102651,-97.19100101414608,http://www.winnipegtransit.com/stops/10564,False
500,10565,10565,Eastbound Portage at Craig,49.882232844337615,-97.18989319067842,http://www.winnipegtransit.com/stops/10565,True
501,10566,10566,Eastbound Portage at Erin,49.88284844226862,-97.18669622346536,http://www.winnipegtransit.com/stops/10566,False
502,10567,10567,Eastbound Portage at Newman,49.88334202411657,-97.1837543306631,http://www.winnipegtransit.com/stops/10567,False
503,10568,10568,Eastbound Portage at Sprague,49.88365505360796,-97.1813481636369,http://www.winnipegtransit.com/stops/10568,False
504,10569,10569,Eastbound Portage at Dominion,49.88403163214695,-97.17841056963532,http://www.winnipegtransit.com/stops/10569,False
505,10570,10570,Eastbound Portage at Sherburn,49.88432832379658,-97.17611631810806,http://www.winnipegtransit.com/stops/10570,False
506,10571,10571,Eastbound Portage at Lipton,49.884688764896886,-97.17330454221398,http://www.winnipegtransit.com/stops/10571,False
507,10572,10572,Eastbound Portage at Lenore,49.88500421288866,-97.17106520383162,http://www.winnipegtransit.com/stops/10572,False
508,10573,10573,Eastbound Portage at Arlington,49.88538521690363,-97.1695611974742,http://www.winnipegtransit.com/stops/10573,True
509,10574,10574,Eastbound Portage at Canora,49.88626094508353,-97.1663538986159,http://www.winnipegtransit.com/stops/10574,False
510,10575,10575,Eastbound Portage at Broadway,49.88684793074922,-97.16422943589544,http://www.winnipegtransit.com/stops/10575,False
511,10576,10576,Eastbound Portage at Maryland,49.88779844623893,-97.16064319767509,http://www.winnipegtransit.com/stops/10576,True
512,10577,10577,Eastbound Portage at Sherbrook,49.88838466111531,-97.15847685844872,http://www.winnipegtransit.com/stops/10577,True
513,10578,10578,Eastbound Portage at Langside,49.88877581727608,-97.15705579381884,http://www.winnipegtransit.com/stops/10578,False
514,10579,10579,Eastbound Portage at Balmoral (U of Winnipeg),49.88993608423463,-97.15309926786396,http://www.winnipegtransit.com/stops/10579,True
515,10580,10580,Eastbound Portage at Vaughan (The Bay),49.891203995508654,-97.14969536203162,http://www.winnipegtransit.com/stops/10580,True
516,10581,10581,Eastbound Portage at Edmonton (Portage Place),49.89201562979916,-97.14757579661158,http://www.winnipegtransit.com/stops/10581,True
517,10582,10582,Eastbound Portage at Donald (Canada Life Centre),49.89348975141049,-97.14357888074984,http://www.winnipegtransit.com/stops/10582,True
518,10583,10583,Eastbound Portage at Fort,49.89479132125154,-97.14004785655725,http://www.winnipegtransit.com/stops/10583,True
519,10584,10584,Eastbound Broadway at Osborne,49.88537890766966,-97.150488889329,http://www.winnipegtransit.com/stops/10584,False
520,10585,10585,Eastbound Broadway at Osborne East (Legislature),49.88551714686225,-97.14900791395492,http://www.winnipegtransit.com/stops/10585,False
521,10586,10586,Eastbound Broadway at Edmonton,49.88650462486032,-97.1443898325602,http://www.winnipegtransit.com/stops/10586,False
522,10588,10588,Eastbound Broadway at Donald,49.887412304336515,-97.1404150480296,http://www.winnipegtransit.com/stops/10588,False
523,10589,10589,Eastbound Broadway at Smith,49.88787407462866,-97.13836464352572,http://www.winnipegtransit.com/stops/10589,True
524,10590,10590,Westbound Broadway at Smith,49.8881055234655,-97.13877341000816,http://www.winnipegtransit.com/stops/10590,True
525,10591,10591,Westbound Broadway at Donald,49.887634979977605,-97.14083807973896,http://www.winnipegtransit.com/stops/10591,False
526,10593,10593,Westbound Broadway at Edmonton,49.8869127886797,-97.1440400513638,http://www.winnipegtransit.com/stops/10593,False
527,10594,10594,Westbound Broadway at Osborne,49.885542942145264,-97.15062183610452,http://www.winnipegtransit.com/stops/10594,False
528,10595,10595,Northbound Osborne at Assiniboine,49.883205592724806,-97.14845596399113,http://www.winnipegtransit.com/stops/10595,False
529,10596,10596,Northbound Osborne at Broadway (Legislature),49.88519187485497,-97.14947976631107,http://www.winnipegtransit.com/stops/10596,False
530,10598,10598,Southbound Osborne at York,49.88794413344428,-97.150028857977,http://www.winnipegtransit.com/stops/10598,False
531,10599,10599,Southbound Osborne at Broadway (Legislature),49.885640812419915,-97.14999162119976,http://www.winnipegtransit.com/stops/10599,False
532,10600,10600,Southbound Osborne at Granite,49.88331093020371,-97.14885564244786,http://www.winnipegtransit.com/stops/10600,False
533,10602,10602,Northbound Memorial at Broadway,49.88632326310766,-97.1476684239792,http://www.winnipegtransit.com/stops/10602,False
534,10604,10604,Northbound Memorial at York,49.88756862782682,-97.14848392695512,http://www.winnipegtransit.com/stops/10604,False
535,10607,10607,Northbound Osborne at York,49.88727423854226,-97.14976210521232,http://www.winnipegtransit.com/stops/10607,False
536,10608,10608,Eastbound York at Memorial,49.8875433497189,-97.1491531600682,http://www.winnipegtransit.com/stops/10608,True
537,10609,10609,Northbound St James at Superstore,49.89973300370383,-97.20001679454911,http://www.winnipegtransit.com/stops/10609,False
538,10611,10611,Eastbound Graham at Fort (Wpg Square),49.89289396056128,-97.13896513270365,http://www.winnipegtransit.com/stops/10611,True
539,10612,10612,Westbound Graham at Garry (Wpg Square),49.89279928255829,-97.13979027501335,http://www.winnipegtransit.com/stops/10612,True
540,10614,10614,Westbound Graham at Donald (Canada Life Centre),49.89219471763528,-97.14247292020964,http://www.winnipegtransit.com/stops/10614,True
541,10615,10615,Eastbound Graham at Smith,49.892314372957664,-97.14152152197448,http://www.winnipegtransit.com/stops/10615,True
542,10616,10616,Eastbound Graham at Hargrave,49.89170865183775,-97.1441345452964,http://www.winnipegtransit.com/stops/10616,True
543,10617,10617,Westbound Graham at Edmonton (RWB),49.891295961550135,-97.14644771901668,http://www.winnipegtransit.com/stops/10617,True
544,10618,10618,Eastbound Graham at Edmonton (RWB),49.891129616529575,-97.1467325568193,http://www.winnipegtransit.com/stops/10618,True
545,10619,10619,Westbound Graham at Vaughan (The Bay),49.89069822708657,-97.14900462598732,http://www.winnipegtransit.com/stops/10619,True
546,10620,10620,Westbound St Mary at Fort,49.89171059839322,-97.13753477148788,http://www.winnipegtransit.com/stops/10620,True
547,10623,10623,Eastbound McDermot at Main,49.896982334644896,-97.13925343694724,http://www.winnipegtransit.com/stops/10623,False
548,10624,10624,Northbound Main at Assiniboine,49.886851091143974,-97.1334895269339,http://www.winnipegtransit.com/stops/10624,True
549,10625,10625,Northbound Main at Broadway (Union Station),49.88925684269111,-97.13485860670144,http://www.winnipegtransit.com/stops/10625,True
550,10627,10627,Northbound Main at Pioneer,49.89490070138789,-97.13789930305114,http://www.winnipegtransit.com/stops/10627,True
551,10628,10628,Northbound Main at McDermot,49.8969808091659,-97.13859902362526,http://www.winnipegtransit.com/stops/10628,True
552,10629,10629,Northbound Main at James (Concert Hall),49.89990062756478,-97.13781821612318,http://www.winnipegtransit.com/stops/10629,True
553,10630,10630,Northbound Main at Logan,49.90235911964378,-97.13575991706476,http://www.winnipegtransit.com/stops/10630,False
554,10631,10631,Northbound Main at Higgins,49.90427121986661,-97.13440491710436,http://www.winnipegtransit.com/stops/10631,False
555,10632,10632,Southbound Main at Henry,49.90340527950955,-97.13537141844049,http://www.winnipegtransit.com/stops/10632,True
556,10633,10633,Southbound Main at Alexander,49.901780157006975,-97.1366735193475,http://www.winnipegtransit.com/stops/10633,True
557,10634,10634,Southbound Main at James,49.90022805318917,-97.13804234920696,http://www.winnipegtransit.com/stops/10634,True
558,10635,10635,Southbound Main at William (City Hall),49.89903036515417,-97.13907716881502,http://www.winnipegtransit.com/stops/10635,True
559,10636,10636,Southbound Main at McDermot,49.89711471591909,-97.13909516968349,http://www.winnipegtransit.com/stops/10636,True
560,10637,10637,Southbound Main at Lombard,49.896175561608935,-97.13886673056592,http://www.winnipegtransit.com/stops/10637,True
561,10638,10638,Southbound Main at Pioneer,49.894064458060654,-97.13791756837088,http://www.winnipegtransit.com/stops/10638,True
562,10639,10639,Southbound Main at St. Mary,49.89135108397374,-97.13643474615122,http://www.winnipegtransit.com/stops/10639,True
563,10640,10640,Northbound Smith at Portage North,49.89451378063114,-97.1423699486405,http://www.winnipegtransit.com/stops/10640,True
564,10641,10641,Southbound Main at Broadway (Union Station),49.88825654763779,-97.13474401922451,http://www.winnipegtransit.com/stops/10641,True
565,10643,10643,Northbound Fort at Graham,49.89286882224675,-97.1385205396758,http://www.winnipegtransit.com/stops/10643,True
566,10644,10644,Northbound Fort at Graham North,49.89415651205584,-97.13916719609897,http://www.winnipegtransit.com/stops/10644,True
567,10645,10645,Eastbound Mayfair at Harkness,49.88396633629199,-97.13477017480672,http://www.winnipegtransit.com/stops/10645,False
568,10646,10646,Northbound Fort at Portage,49.89477316360608,-97.13947765843248,http://www.winnipegtransit.com/stops/10646,False
569,10648,10648,Southbound Garry at Portage North,49.89477547875214,-97.14130165257286,http://www.winnipegtransit.com/stops/10648,False
570,10649,10649,Southbound Garry at Portage South,49.894049617353346,-97.14091181927408,http://www.winnipegtransit.com/stops/10649,False
571,10650,10650,Southbound Garry at Graham,49.89280621348895,-97.14022164421476,http://www.winnipegtransit.com/stops/10650,False
572,10651,10651,Northbound Smith at Broadway,49.88840664995304,-97.13904027599868,http://www.winnipegtransit.com/stops/10651,True
573,10652,10652,Northbound Smith at St. Mary,49.89086582850485,-97.14037977318362,http://www.winnipegtransit.com/stops/10652,True
574,10653,10653,Northbound Smith at Graham South,49.89218159425821,-97.14109499261532,http://www.winnipegtransit.com/stops/10653,True
575,10654,10654,Northbound Smith at Portage South,49.89394208382671,-97.14205772453114,http://www.winnipegtransit.com/stops/10654,True
576,10655,10655,Northbound King at Notre Dame,49.89631323939863,-97.14239831770476,http://www.winnipegtransit.com/stops/10655,True
577,10656,10656,Northbound King at McDermot,49.89735294692517,-97.1416064368961,http://www.winnipegtransit.com/stops/10656,True
578,10657,10657,Northbound King at William (City Hall),49.89964518408364,-97.1398333525765,http://www.winnipegtransit.com/stops/10657,True
579,10658,10658,Northbound King at Rupert,49.90098581504399,-97.1387373328985,http://www.winnipegtransit.com/stops/10658,False
580,10664,10664,Southbound Princess at James,49.901094006160314,-97.1404321558456,http://www.winnipegtransit.com/stops/10664,True
581,10665,10665,Southbound Princess at William (RRC Polytech),49.89976865642798,-97.1413604348562,http://www.winnipegtransit.com/stops/10665,True
582,10666,10666,Southbound Princess at McDermot,49.897892649764245,-97.14272756690588,http://www.winnipegtransit.com/stops/10666,True
583,10667,10667,Southbound Donald at Notre Dame,49.89630272694363,-97.1439861412164,http://www.winnipegtransit.com/stops/10667,True
584,10668,10668,Southbound Donald at Ellice,49.89455988199535,-97.14412263168248,http://www.winnipegtransit.com/stops/10668,True
585,10669,10669,Southbound Donald at Portage South,49.89310795282576,-97.14332897939435,http://www.winnipegtransit.com/stops/10669,True
586,10670,10670,Southbound Donald at Graham,49.89170163562447,-97.142575392535,http://www.winnipegtransit.com/stops/10670,True
587,10671,10671,Southbound Donald at St. Mary,49.89037666572962,-97.14184657012476,http://www.winnipegtransit.com/stops/10671,True
588,10672,10672,Southbound Donald at York,49.888770559625655,-97.1409754392882,http://www.winnipegtransit.com/stops/10672,True
589,10676,10676,Westbound Stradbrook at Queen Elizabeth,49.88327735842539,-97.13276426426177,http://www.winnipegtransit.com/stops/10676,False
590,10685,10685,Southbound Carlton at Broadway,49.88656752092377,-97.14270286690302,http://www.winnipegtransit.com/stops/10685,False
591,10686,10686,Southbound Carlton at Assiniboine,49.88490703711474,-97.14180601795032,http://www.winnipegtransit.com/stops/10686,False
592,10687,10687,Northbound Edmonton at Assiniboine,49.88426487068891,-97.14270771630322,http://www.winnipegtransit.com/stops/10687,False
593,10695,10695,Southbound Kennedy at Sargent,49.89603406760707,-97.15080560437632,http://www.winnipegtransit.com/stops/10695,False
594,10696,10696,Southbound Kennedy at Qu'Appelle,49.895181271768365,-97.15035085049094,http://www.winnipegtransit.com/stops/10696,False
595,10699,10699,Southbound Kennedy at Graham,49.890608061373975,-97.1478663823469,http://www.winnipegtransit.com/stops/10699,False
596,10700,10700,Southbound Kennedy at St. Mary,49.889564470452704,-97.14729372896888,http://www.winnipegtransit.com/stops/10700,False
597,10701,10701,Southbound Kennedy at York,49.88808559320933,-97.14650109185936,http://www.winnipegtransit.com/stops/10701,False
598,10702,10702,Southbound Kennedy at Broadway,49.88660648784355,-97.14569458872224,http://www.winnipegtransit.com/stops/10702,False
599,10703,10703,Northbound Vaughan at St. Mary,49.88897642149988,-97.1482072939068,http://www.winnipegtransit.com/stops/10703,False
600,10704,10704,Northbound Vaughan at Graham (The Bay),49.89041910700292,-97.14898745850913,http://www.winnipegtransit.com/stops/10704,False
601,10706,10706,Northbound Vaughan at Portage South,49.89123572757823,-97.14942960636756,http://www.winnipegtransit.com/stops/10706,False
602,10707,10707,Northbound Vaughan at Portage North,49.89184314117183,-97.1497266113996,http://www.winnipegtransit.com/stops/10707,False
603,10709,10709,Northbound Balmoral at Qu'Appelle,49.895210828127155,-97.15220166683856,http://www.winnipegtransit.com/stops/10709,False
604,10710,10710,Eastbound William Stephenson at Westbrook,49.89360292713449,-97.13662648073796,http://www.winnipegtransit.com/stops/10710,False
605,10712,10712,Eastbound Disraeli at Lily,49.90152383766292,-97.13416274368063,http://www.winnipegtransit.com/stops/10712,False
606,10713,10713,Westbound William at McPhillips,49.909003005213265,-97.17050578046825,http://www.winnipegtransit.com/stops/10713,False
607,10714,10714,Eastbound Disraeli at Argyle,49.9024686743236,-97.1297255082803,http://www.winnipegtransit.com/stops/10714,False
608,10715,10715,Westbound Disraeli at Henry,49.90263655390115,-97.13009503340092,http://www.winnipegtransit.com/stops/10715,True
609,10716,10716,Westbound Disraeli at Martha,49.90171979275626,-97.13460082550463,http://www.winnipegtransit.com/stops/10716,True
610,10719,10719,Westbound Market at Main (Concert Hall),49.8990942979297,-97.13745934566008,http://www.winnipegtransit.com/stops/10719,True
611,10720,10720,Westbound William at King (City Hall),49.89920380610349,-97.13979462557784,http://www.winnipegtransit.com/stops/10720,False
612,10721,10721,Eastbound William at Princess (RRC Polytech),49.89954682429214,-97.14154999328936,http://www.winnipegtransit.com/stops/10721,False
613,10722,10722,Westbound William at Princess (RRC Polytech),49.89978345471247,-97.14172193541548,http://www.winnipegtransit.com/stops/10722,False
614,10723,10723,Eastbound William at Dagmar,49.90030416194754,-97.14390221918424,http://www.winnipegtransit.com/stops/10723,False
615,10724,10724,Westbound William at Ellen,49.90089102063489,-97.14516089401204,http://www.winnipegtransit.com/stops/10724,False
616,10725,10725,Eastbound William at Ellen,49.900853430745954,-97.14562189506674,http://www.winnipegtransit.com/stops/10725,False
617,10726,10726,Westbound William at Gertie,49.90153484393373,-97.14716943261315,http://www.winnipegtransit.com/stops/10726,False
618,10727,10727,Eastbound William at Gertie,49.901525550665816,-97.14771291176746,http://www.winnipegtransit.com/stops/10727,False
619,10728,10728,Westbound William at Isabel,49.90246233242785,-97.15004453758044,http://www.winnipegtransit.com/stops/10728,False
620,10729,10729,Eastbound William at Isabel,49.90227355279027,-97.15005175889584,http://www.winnipegtransit.com/stops/10729,False
621,10730,10730,Eastbound Stradbrook at Donald,49.879944053988886,-97.13802935805217,http://www.winnipegtransit.com/stops/10730,False
622,10732,10732,Eastbound William at Kate,49.90302106402042,-97.15236284299792,http://www.winnipegtransit.com/stops/10732,False
623,10733,10733,Westbound William at Kate,49.903163119252,-97.15224600207742,http://www.winnipegtransit.com/stops/10733,False
624,10735,10735,Northbound Balmoral at Sargent,49.89645049441163,-97.15209861293155,http://www.winnipegtransit.com/stops/10735,False
625,10736,10736,Westbound William at Sherbrook (HSC),49.90441164888638,-97.1560839450073,http://www.winnipegtransit.com/stops/10736,False
626,10737,10737,Eastbound William at Sherbrook (HSC),49.90415683828964,-97.1558986832672,http://www.winnipegtransit.com/stops/10737,False
627,10740,10740,Westbound William at Tecumseh East (HSC),49.90557627096227,-97.15974422081771,http://www.winnipegtransit.com/stops/10740,False
628,10741,10741,Eastbound William at Tecumseh East (HSC),49.905084555363054,-97.1588019536682,http://www.winnipegtransit.com/stops/10741,False
629,10743,10743,Eastbound William at Tecumseh,49.90633353297763,-97.16268198050165,http://www.winnipegtransit.com/stops/10743,False
630,10744,10744,Westbound William at Tecumseh,49.90624769711345,-97.16180780477676,http://www.winnipegtransit.com/stops/10744,False
631,10745,10745,Eastbound William at Arlington,49.90710930825104,-97.1650898716508,http://www.winnipegtransit.com/stops/10745,False
632,10746,10746,Westbound William at Arlington,49.90755404116114,-97.1659086716036,http://www.winnipegtransit.com/stops/10746,False
633,10747,10747,Eastbound William at Lark,49.908253908483125,-97.16863989697389,http://www.winnipegtransit.com/stops/10747,False
634,10748,10748,Westbound William at Lark,49.90844313025609,-97.16866058639864,http://www.winnipegtransit.com/stops/10748,False
635,10749,10749,Eastbound William at McPhillips,49.90877540567465,-97.17033332458438,http://www.winnipegtransit.com/stops/10749,False
636,10750,10750,Southbound Isabel at Notre Dame,49.8991532307573,-97.15180039711204,http://www.winnipegtransit.com/stops/10750,False
637,10751,10751,Northbound Isabel at Notre Dame,49.899539881063085,-97.151228596022,http://www.winnipegtransit.com/stops/10751,False
638,10752,10752,Southbound Isabel at McDermot,49.90044182069647,-97.1508181193387,http://www.winnipegtransit.com/stops/10752,False
639,10753,10753,Northbound Isabel at Bannatyne,49.9010858257986,-97.15002756028692,http://www.winnipegtransit.com/stops/10753,False
640,10754,10754,Northbound Isabel at William,49.90201005721844,-97.1493237405344,http://www.winnipegtransit.com/stops/10754,False
641,10755,10755,Southbound Isabel at William,49.90223657464365,-97.14942648379792,http://www.winnipegtransit.com/stops/10755,False
642,10756,10756,Southbound Isabel at Ross,49.90359972931829,-97.1486083446584,http://www.winnipegtransit.com/stops/10756,False
643,10757,10757,Northbound Isabel at Ross,49.904076034934064,-97.1480191038206,http://www.winnipegtransit.com/stops/10757,False
644,10758,10758,Southbound Isabel at Alexander,49.90538746893134,-97.14734214749149,http://www.winnipegtransit.com/stops/10758,False
645,10759,10759,Northbound Isabel at Logan,49.90563160055825,-97.14685926188804,http://www.winnipegtransit.com/stops/10759,False
646,10760,10760,Westbound Pioneer at Westbrook,49.89357538423669,-97.13435793613117,http://www.winnipegtransit.com/stops/10760,False
647,10761,10761,Westbound Pioneer at Main,49.89450900608592,-97.13759412352408,http://www.winnipegtransit.com/stops/10761,False
648,10762,10762,Westbound Portage at Main,49.895330438350626,-97.1372143864317,http://www.winnipegtransit.com/stops/10762,False
649,10763,10763,Eastbound Portage at Main,49.89511334794,-97.13713919981188,http://www.winnipegtransit.com/stops/10763,False
650,10764,10764,Westbound Portage at Westbrook,49.894819022023185,-97.13561885926708,http://www.winnipegtransit.com/stops/10764,False
651,10765,10765,Northbound King at Notre Dame,49.896098102809745,-97.14300534057432,http://www.winnipegtransit.com/stops/10765,False
652,10766,10766,Westbound Notre Dame at Hargrave,49.897127546661245,-97.14550016406676,http://www.winnipegtransit.com/stops/10766,False
653,10767,10767,Westbound Notre Dame at Dagmar,49.89764848599027,-97.14713728027851,http://www.winnipegtransit.com/stops/10767,False
654,10768,10768,Westbound Notre Dame at Gertie,49.89828239451822,-97.14909038948524,http://www.winnipegtransit.com/stops/10768,False
655,10769,10769,Westbound Notre Dame at Isabel,49.89939939771922,-97.15257082494875,http://www.winnipegtransit.com/stops/10769,False
656,10770,10770,Westbound Notre Dame at Lydia,49.90019446703924,-97.15504710700108,http://www.winnipegtransit.com/stops/10770,False
657,10771,10771,Westbound Notre Dame at Sherbrook,49.90106649437267,-97.15784083776693,http://www.winnipegtransit.com/stops/10771,False
658,10773,10773,Eastbound McDermot at Isabel,49.90023039323886,-97.15053376004036,http://www.winnipegtransit.com/stops/10773,False
659,10775,10775,Eastbound McDermot at Frances,49.89920856912681,-97.14738387891558,http://www.winnipegtransit.com/stops/10775,False
660,10776,10776,Eastbound McDermot at Dagmar,49.898592610632754,-97.14543006641668,http://www.winnipegtransit.com/stops/10776,False
661,10777,10777,Eastbound McDermot at Adelaide,49.89808152904618,-97.1438482593195,http://www.winnipegtransit.com/stops/10777,False
662,10778,10778,Eastbound McDermot at Arthur,49.897267573353474,-97.14133121667122,http://www.winnipegtransit.com/stops/10778,False
663,10779,10779,Eastbound Grant at Pembina,49.86461704309969,-97.14759431728292,http://www.winnipegtransit.com/stops/10779,True
664,10780,10780,Westbound Grant at Arbuthnot,49.864253115083976,-97.15071139561756,http://www.winnipegtransit.com/stops/10780,False
665,10781,10781,Westbound Grant at Lilac,49.86355804775611,-97.15281131758944,http://www.winnipegtransit.com/stops/10781,False
666,10782,10782,Westbound Grant at Stafford,49.86232207941887,-97.15653200388736,http://www.winnipegtransit.com/stops/10782,True
667,10785,10785,Eastbound Grant at Stafford,49.862001775853784,-97.15675291859874,http://www.winnipegtransit.com/stops/10785,True
668,10786,10786,Eastbound Grant at Lilac,49.863460604996106,-97.15234191507238,http://www.winnipegtransit.com/stops/10786,False
669,10787,10787,Eastbound Grant at Arbuthnot,49.86422469086974,-97.15005845281009,http://www.winnipegtransit.com/stops/10787,False
670,10788,10788,Eastbound James at Main,49.900134988483494,-97.13840800400496,http://www.winnipegtransit.com/stops/10788,False
671,10789,10789,Eastbound Notre Dame at Arlington,49.90417237430657,-97.16820953812504,http://www.winnipegtransit.com/stops/10789,True
672,10790,10790,Southbound Balmoral at Sargent,49.89638279841965,-97.1523657692312,http://www.winnipegtransit.com/stops/10790,True
673,10791,10791,Northbound Valour at Dyson,49.89205787779685,-97.18832820252264,http://www.winnipegtransit.com/stops/10791,False
674,10792,10792,Westbound Dublin at Notre Dame,49.911243321086395,-97.1905762534413,http://www.winnipegtransit.com/stops/10792,False
675,10793,10793,Westbound Dublin at Orange,49.91134390604543,-97.19413831364632,http://www.winnipegtransit.com/stops/10793,False
676,10794,10794,Eastbound Dublin at Orange,49.91114608552266,-97.19298960028662,http://www.winnipegtransit.com/stops/10794,True
677,10795,10795,Westbound Dublin at Field,49.911427041013106,-97.19658671635072,http://www.winnipegtransit.com/stops/10795,False
678,10796,10796,Eastbound Dublin at Field,49.91125038148066,-97.19621722381387,http://www.winnipegtransit.com/stops/10796,True
679,10797,10797,Eastbound Dublin at St. James,49.91133585452911,-97.19881875667213,http://www.winnipegtransit.com/stops/10797,True
680,10798,10798,Southbound Stafford at Grosvenor,49.87080179765981,-97.1637245342538,http://www.winnipegtransit.com/stops/10798,False
681,10800,10800,Eastbound Pacific at Martha,49.90067675060604,-97.13574121036945,http://www.winnipegtransit.com/stops/10800,True
682,10801,10801,Eastbound Notre Dame at Dublin,49.91147074365213,-97.1901637996936,http://www.winnipegtransit.com/stops/10801,True
683,10802,10802,Southbound Westbrook at William Stephenson,49.89357307451088,-97.13588966081085,http://www.winnipegtransit.com/stops/10802,False
684,10803,10803,Eastbound William Stephenson at Canadian Museum for Human Rights,49.89240162889352,-97.13296906744426,http://www.winnipegtransit.com/stops/10803,False
685,10804,10804,Westbound Pioneer at Canadian Museum for Human Rights,49.89252209427399,-97.13263025053205,http://www.winnipegtransit.com/stops/10804,False
686,10805,10805,Northbound Empress at St Matthews,49.89070133498948,-97.1959252952628,http://www.winnipegtransit.com/stops/10805,False
687,10806,10806,Southbound Empress at St Matthews,49.89046294792364,-97.1962126438,http://www.winnipegtransit.com/stops/10806,False
688,10808,10808,Southbound Pembina at Taylor,49.85886248064983,-97.15111201267376,http://www.winnipegtransit.com/stops/10808,False
689,10810,10810,Southbound Empress at Jack Blick,49.8857874051105,-97.19633124618048,http://www.winnipegtransit.com/stops/10810,False
690,10811,10811,Eastbound Maroons at St. James,49.88788578226525,-97.2005410779128,http://www.winnipegtransit.com/stops/10811,False
691,10812,10812,Eastbound Maroons at Empress,49.88773417957613,-97.19657889064388,http://www.winnipegtransit.com/stops/10812,False
692,10813,10813,Northbound Empress at Sargent,49.89750927447738,-97.19526756766446,http://www.winnipegtransit.com/stops/10813,False
693,10814,10814,Southbound Empress at Ellice,49.89421524373407,-97.19572463578378,http://www.winnipegtransit.com/stops/10814,False
694,10815,10815,Southbound Maryland at Misericordia Health Centre,49.88010755643578,-97.16119997456784,http://www.winnipegtransit.com/stops/10815,False
695,10817,10817,Southbound Stafford at Pembina,49.85683350549028,-97.1524834006153,http://www.winnipegtransit.com/stops/10817,False
696,10818,10818,Northbound St James at Costco,49.90418889358765,-97.19965596988948,http://www.winnipegtransit.com/stops/10818,False
697,10819,10819,Eastbound Broadway at Furby,49.88564341949334,-97.1580521576024,http://www.winnipegtransit.com/stops/10819,False
698,10820,10820,Northbound Empress at Ellice,49.89390698973262,-97.19556904484296,http://www.winnipegtransit.com/stops/10820,False
699,10821,10821,Westbound Polo Park West Access at Polo Park (12),49.88510676297461,-97.19999011050496,http://www.winnipegtransit.com/stops/10821,False
700,10822,10822,Northbound Polo Park Terminal at Polo Park (78),49.88134374226894,-97.1992113233058,http://www.winnipegtransit.com/stops/10822,False
701,10823,10823,Northbound Polo Park Terminal at Polo Park (77),49.8815235379866,-97.19920463351464,http://www.winnipegtransit.com/stops/10823,False
702,10824,10824,Northbound Polo Park Terminal at Polo Park (66),49.881722178906365,-97.19925292430676,http://www.winnipegtransit.com/stops/10824,False
703,10825,10825,Southbound Polo Park at Polo Park (79),49.88163953953783,-97.19914463556964,http://www.winnipegtransit.com/stops/10825,False
704,10826,10826,Southbound Polo Park at Polo Park,49.881460176661264,-97.1991791502798,http://www.winnipegtransit.com/stops/10826,False
705,10827,10827,Southbound Polo Park at Polo Park (26),49.88124485462154,-97.1992150026622,http://www.winnipegtransit.com/stops/10827,False
706,10830,10830,Northbound Fort at Assiniboine,49.88689844476339,-97.13531148745489,http://www.winnipegtransit.com/stops/10830,False
707,10831,10831,Northbound Balmoral at Balmoral Station (BLUE),49.891518573386264,-97.15249584699654,http://www.winnipegtransit.com/stops/10831,True
708,10832,10832,Southbound Balmoral at Cumberland,49.89782989005566,-97.15229656793156,http://www.winnipegtransit.com/stops/10832,False
709,10834,10834,Southbound Empress at Maroons,49.887651971199546,-97.19649842154364,http://www.winnipegtransit.com/stops/10834,False
710,10835,10835,Northbound Balmoral at Ellice North,49.89395007280808,-97.15211058343908,http://www.winnipegtransit.com/stops/10835,False
711,10836,10836,Northbound Sherbrook at Logan,49.90778229205632,-97.1525430418071,http://www.winnipegtransit.com/stops/10836,False
712,10837,10837,Northbound Sherbrook at Henry,49.90868023532012,-97.1518819590072,http://www.winnipegtransit.com/stops/10837,False
713,10838,10838,Northbound Balmoral at Ellice,49.89260652919197,-97.15246822335055,http://www.winnipegtransit.com/stops/10838,True
714,10839,10839,Northbound Balmoral at Cumberland,49.89805961934849,-97.1520371381102,http://www.winnipegtransit.com/stops/10839,False
715,10840,10840,Southbound Vaughan at St. Mary,49.889261105604206,-97.14857231115892,http://www.winnipegtransit.com/stops/10840,True
716,10841,10841,Northbound Empress at Maroons,49.88765684228597,-97.19623371867964,http://www.winnipegtransit.com/stops/10841,False
717,10844,10844,"Northbound Balmoral at Balmoral Station (48, 49)",49.89124511191497,-97.1522695941318,http://www.winnipegtransit.com/stops/10844,False
718,10845,10845,Northbound Balmoral at Balmoral Station (46),49.89138872237797,-97.15225018609549,http://www.winnipegtransit.com/stops/10845,True
719,10846,10846,Northbound Balmoral at Balmoral Station (42),49.891505364229346,-97.15223180793669,http://www.winnipegtransit.com/stops/10846,False
720,10864,10864,Southbound Kennedy at Broadway North,49.8870330062483,-97.1459288409388,http://www.winnipegtransit.com/stops/10864,False
721,10870,10870,Westbound Broadway at Osborne East (Legislature),49.885599294969104,-97.14964516734771,http://www.winnipegtransit.com/stops/10870,False
722,10872,10872,Northbound Edmonton at Broadway,49.886097933306935,-97.1437093384401,http://www.winnipegtransit.com/stops/10872,False
723,10874,10874,Eastbound Wolseley at Misericordia Health Centre,49.880229801519135,-97.16040188545016,http://www.winnipegtransit.com/stops/10874,False
724,10875,10875,Northbound Sherbrook at Portage South,49.8880955297332,-97.15896122242115,http://www.winnipegtransit.com/stops/10875,False
725,10877,10877,Southbound Memorial at York,49.88790337563125,-97.14916723320158,http://www.winnipegtransit.com/stops/10877,False
726,10878,10878,Southbound Memorial at Broadway,49.886131058970555,-97.14802382651868,http://www.winnipegtransit.com/stops/10878,False
727,10880,10880,Northbound Polo Park at Polo Park (74),49.88119091590399,-97.1992170095753,http://www.winnipegtransit.com/stops/10880,False
728,10881,10881,"Southbound Polo Park at Polo Park (24,95)",49.88109246106621,-97.19924851335868,http://www.winnipegtransit.com/stops/10881,False
729,10901,10901,Southbound Israel Asper at Canadian Museum for Human Rights,49.88976729591246,-97.13192904986732,http://www.winnipegtransit.com/stops/10901,False
730,10902,10902,Northbound Israel Asper at Canadian Museum for Human Rights,49.88925512936345,-97.13140583832558,http://www.winnipegtransit.com/stops/10902,False
731,10904,10904,Northbound Riverview Centre Access at Riverview Centre (Main Entrance),49.868505104419576,-97.12039141711188,http://www.winnipegtransit.com/stops/10904,False
732,10907,10907,Eastbound Forks Market at The Forks Market,49.887822668560275,-97.13070935353262,http://www.winnipegtransit.com/stops/10907,False
733,10910,10910,Northbound Osborne at Osborne Station,49.87393476690385,-97.141350363071,http://www.winnipegtransit.com/stops/10910,False
734,10911,10911,Southbound Osborne at Osborne Station,49.87383923245959,-97.14156280506424,http://www.winnipegtransit.com/stops/10911,False
735,10939,10939,Southbound Israel Asper at William Stephenson,49.891586295320494,-97.1326106774134,http://www.winnipegtransit.com/stops/10939,False
736,11010,11010,Northbound Fort at Broadway,49.88882168676582,-97.13632333079693,http://www.winnipegtransit.com/stops/11010,False
737,11016,11016,Westbound River at Donald,49.88244387066379,-97.13686128375498,http://www.winnipegtransit.com/stops/11016,False
738,11022,11022,Westbound Rupert at Princess,49.90155636002913,-97.139537024242,http://www.winnipegtransit.com/stops/11022,True
739,11023,11023,Northbound St James at Ness,49.88329209201088,-97.20129656750316,http://www.winnipegtransit.com/stops/11023,True
740,11024,11024,Northbound Fort at St. Mary,49.89139887747817,-97.13772777498872,http://www.winnipegtransit.com/stops/11024,False
741,11025,11025,Eastbound Ellice at Balmoral,49.89288087848398,-97.15275014453874,http://www.winnipegtransit.com/stops/11025,True
742,11027,11027,Southbound Southwest Transitway at Harkness Station,49.8807570744673,-97.1354506707884,http://www.winnipegtransit.com/stops/11027,True
743,11028,11028,Northbound Southwest Transitway at Harkness Station,49.88091913355152,-97.13490153505047,http://www.winnipegtransit.com/stops/11028,True
744,11029,11029,Southbound Southwest Transitway at Osborne Station,49.87328305505622,-97.1410970220562,http://www.winnipegtransit.com/stops/11029,True
745,11030,11030,Northbound Southwest Transitway at Osborne Station,49.8735739001523,-97.14072398095963,http://www.winnipegtransit.com/stops/11030,True
746,11031,11031,Southbound Southwest Transitway at Fort Rouge Station,49.862411064961776,-97.14577234321878,http://www.winnipegtransit.com/stops/11031,True
747,11032,11032,Northbound Southwest Transitway at Fort Rouge Station,49.86298491251283,-97.14509636033004,http://www.winnipegtransit.com/stops/11032,True
748,11033,11033,Southbound Southwest Transitway at Jubilee Station,49.85569247453471,-97.15031474518727,http://www.winnipegtransit.com/stops/11033,True
749,11034,11034,Northbound Southwest Transitway at Jubilee Station,49.85614116382014,-97.14968543279382,http://www.winnipegtransit.com/stops/11034,True
